city,state_id,lat,lng,RegionName,population,state_name
New York,NY,40.6943,-73.9249,"New York, NY",18908608,New York
Los Angeles,CA,34.1141,-118.4068,"Los Angeles, CA",11922389,California
Chicago,IL,41.8375,-87.6866,"Chicago, IL",8497759,Illinois
Miami,FL,25.784,-80.2101,"Miami, FL",6080145,Florida
Houston,TX,29.786,-95.3885,"Houston, TX",5970127,Texas
Dallas,TX,32.7935,-96.7667,"Dallas, TX",5830932,Texas
Philadelphia,PA,40.0077,-75.1339,"Philadelphia, PA",5683533,Pennsylvania
Atlanta,GA,33.7628,-84.422,"Atlanta, GA",5180179,Georgia
Washington,DC,38.9047,-77.0163,"Washington, DC",5116378,District of Columbia
Boston,MA,42.3188,-71.0852,"Boston, MA",4328315,Massachusetts
Phoenix,AZ,33.5722,-112.0892,"Phoenix, AZ",4064275,Arizona
Detroit,MI,42.3834,-83.1024,"Detroit, MI",3725908,Michigan
Seattle,WA,47.6211,-122.3244,"Seattle, WA",3561397,Washington
San Francisco,CA,37.7558,-122.4449,"San Francisco, CA",3364979,California
San Diego,CA,32.8313,-117.1222,"San Diego, CA",3046560,California
Minneapolis,MN,44.9635,-93.2678,"Minneapolis, MN",2892569,Minnesota
Tampa,FL,27.9945,-82.4447,"Tampa, FL",2861173,Florida
Brooklyn,NY,40.6501,-73.9496,"Brooklyn, NY",2736074,New York
Denver,CO,39.762,-104.8758,"Denver, CO",2687458,Colorado
Queens,NY,40.7498,-73.7976,"Queens, NY",2405464,New York
Riverside,CA,33.9381,-117.3949,"Riverside, CA",2332836,California
Las Vegas,NV,36.2333,-115.2654,"Las Vegas, NV",2248047,Nevada
Baltimore,MD,39.3051,-76.6144,"Baltimore, MD",2196524,Maryland
St. Louis,MO,38.6359,-90.2451,"St. Louis, MO",2130881,Missouri
Portland,OR,45.5371,-122.65,"Portland, OR",2095808,Oregon
San Antonio,TX,29.4632,-98.5238,"San Antonio, TX",2058444,Texas
Sacramento,CA,38.5677,-121.4685,"Sacramento, CA",1957738,California
Austin,TX,30.3005,-97.7522,"Austin, TX",1905945,Texas
Orlando,FL,28.4773,-81.337,"Orlando, FL",1882705,Florida
San Juan,PR,18.3985,-66.061,"San Juan, PR",1814587,Puerto Rico
San Jose,CA,37.3012,-121.848,"San Jose, CA",1771413,California
Pittsburgh,PA,40.4397,-79.9763,"Pittsburgh, PA",1749091,Pennsylvania
Indianapolis,IN,39.7771,-86.1458,"Indianapolis, IN",1729849,Indiana
Manhattan,NY,40.7834,-73.9662,"Manhattan, NY",1694263,New York
Cincinnati,OH,39.1413,-84.506,"Cincinnati, OH",1692702,Ohio
Kansas City,MO,39.1238,-94.5541,"Kansas City, MO",1689556,Missouri
Cleveland,OH,41.4764,-81.6805,"Cleveland, OH",1680247,Ohio
Columbus,OH,39.9862,-82.9855,"Columbus, OH",1572546,Ohio
Bronx,NY,40.8501,-73.8662,"Bronx, NY",1472654,New York
Virginia Beach,VA,36.7335,-76.0435,"Virginia Beach, VA",1443020,Virginia
Charlotte,NC,35.2083,-80.8303,"Charlotte, NC",1427444,North Carolina
Milwaukee,WI,43.0642,-87.9675,"Milwaukee, WI",1290940,Wisconsin
Providence,RI,41.823,-71.4187,"Providence, RI",1290271,Rhode Island
Jacksonville,FL,30.3322,-81.6749,"Jacksonville, FL",1288298,Florida
Nashville,TN,36.1715,-86.7842,"Nashville, TN",1177657,Tennessee
Salt Lake City,UT,40.7776,-111.9311,"Salt Lake City, UT",1173879,Utah
Raleigh,NC,35.8324,-78.6429,"Raleigh, NC",1163152,North Carolina
Richmond,VA,37.5295,-77.4756,"Richmond, VA",1073223,Virginia
Memphis,TN,35.1087,-89.9663,"Memphis, TN",1037998,Tennessee
Oklahoma City,OK,35.4676,-97.5136,"Oklahoma City, OK",998806,Oklahoma
Hartford,CT,41.7661,-72.6834,"Hartford, CT",974684,Connecticut
Louisville,KY,38.1663,-85.6485,"Louisville, KY",963812,Kentucky
Buffalo,NY,42.9018,-78.8487,"Buffalo, NY",944589,New York
New Orleans,LA,30.0687,-89.9288,"New Orleans, LA",932759,Louisiana
Fort Worth,TX,32.7817,-97.3474,"Fort Worth, TX",924663,Texas
Bridgeport,CT,41.1918,-73.1954,"Bridgeport, CT",908251,Connecticut
Tucson,AZ,32.1541,-110.8787,"Tucson, AZ",878320,Arizona
El Paso,TX,31.8476,-106.43,"El Paso, TX",865270,Texas
Omaha,NE,41.2627,-96.0529,"Omaha, NE",821345,Nebraska
McAllen,TX,26.2252,-98.2467,"McAllen, TX",797341,Texas
Birmingham,AL,33.5279,-86.7971,"Birmingham, AL",782111,Alabama
Albuquerque,NM,35.1054,-106.6465,"Albuquerque, NM",769986,New Mexico
Tulsa,OK,36.1283,-95.9042,"Tulsa, OK",731743,Oklahoma
Fresno,CA,36.783,-119.7939,"Fresno, CA",725276,California
Charleston,SC,32.8168,-79.9687,"Charleston, SC",706884,South Carolina
Rochester,NY,43.168,-77.6162,"Rochester, NY",699921,New York
Dayton,OH,39.7805,-84.2003,"Dayton, OH",668825,Ohio
Cape Coral,FL,26.6443,-81.9957,"Cape Coral, FL",654405,Florida
Mission Viejo,CA,33.6096,-117.6551,"Mission Viejo, CA",642211,California
Colorado Springs,CO,38.8674,-104.7605,"Colorado Springs, CO",638194,Colorado
Baton Rouge,LA,30.442,-91.1311,"Baton Rouge, LA",635671,Louisiana
Allentown,PA,40.5961,-75.4756,"Allentown, PA",627863,Pennsylvania
Ogden,UT,41.2279,-111.9682,"Ogden, UT",622918,Utah
Provo,UT,40.2457,-111.6457,"Provo, UT",619218,Utah
Knoxville,TN,35.9692,-83.9496,"Knoxville, TN",615829,Tennessee
Grand Rapids,MI,42.9619,-85.6562,"Grand Rapids, MI",609023,Michigan
Columbia,SC,34.0378,-80.9036,"Columbia, SC",604065,South Carolina
Albany,NY,42.6664,-73.7987,"Albany, NY",590694,New York
Bakersfield,CA,35.3529,-119.0359,"Bakersfield, CA",571992,California
New Haven,CT,41.3113,-72.9246,"New Haven, CT",565572,Connecticut
Des Moines,IA,41.5725,-93.6105,"Des Moines, IA",548926,Iowa
Akron,OH,41.0798,-81.5219,"Akron, OH",541945,Ohio
Palm Bay,FL,27.9631,-80.6593,"Palm Bay, FL",534348,Florida
Concord,CA,37.9722,-122.0016,"Concord, CA",531175,California
Wichita,KS,37.6895,-97.3443,"Wichita, KS",509003,Kansas
Mesa,AZ,33.4015,-111.7178,"Mesa, AZ",503390,Arizona
Harrisburg,PA,40.2752,-76.8843,"Harrisburg, PA",498329,Pennsylvania
Staten Island,NY,40.5834,-74.1496,"Staten Island, NY",495747,New York
Toledo,OH,41.6638,-83.5827,"Toledo, OH",493302,Ohio
Worcester,MA,42.2705,-71.8079,"Worcester, MA",486486,Massachusetts
Long Beach,CA,33.7977,-118.167,"Long Beach, CA",462293,California
Port St. Lucie,FL,27.2796,-80.3884,"Port St. Lucie, FL",462047,Florida
Little Rock,AR,34.7256,-92.3577,"Little Rock, AR",459409,Arkansas
Reno,NV,39.5497,-119.8483,"Reno, NV",457702,Nevada
Spokane,WA,47.6671,-117.433,"Spokane, WA",456219,Washington
Madison,WI,43.0822,-89.393,"Madison, WI",451652,Wisconsin
Boise,ID,43.6005,-116.2308,"Boise, ID",449776,Idaho
Bonita Springs,FL,26.3558,-81.7859,"Bonita Springs, FL",449527,Florida
Denton,TX,33.2175,-97.1418,"Denton, TX",438492,Texas
Oakland,CA,37.7904,-122.2166,"Oakland, CA",437825,California
Springfield,MA,42.1155,-72.5395,"Springfield, MA",437752,Massachusetts
Augusta,GA,33.3645,-82.0708,"Augusta, GA",437257,Georgia
Kissimmee,FL,28.3041,-81.4169,"Kissimmee, FL",431618,Florida
Winston-Salem,NC,36.1029,-80.261,"Winston-Salem, NC",427706,North Carolina
Stockton,CA,37.9765,-121.3109,"Stockton, CA",413637,California
Syracuse,NY,43.0407,-76.1437,"Syracuse, NY",410732,New York
Chattanooga,TN,35.066,-85.2481,"Chattanooga, TN",406849,Tennessee
Lancaster,PA,40.042,-76.3012,"Lancaster, PA",402476,Pennsylvania
Greenville,SC,34.8354,-82.3646,"Greenville, SC",401443,South Carolina
Durham,NC,35.9792,-78.9022,"Durham, NC",399616,North Carolina
Pensacola,FL,30.4413,-87.1911,"Pensacola, FL",398813,Florida
Fayetteville,AR,36.0714,-94.1661,"Fayetteville, AR",394650,Arkansas
Arlington,TX,32.6998,-97.125,"Arlington, TX",393469,Texas
Aurora,CO,39.7083,-104.7237,"Aurora, CO",387349,Colorado
Oxnard,CA,34.1964,-119.1815,"Oxnard, CA",369962,California
Indio,CA,33.7346,-116.2346,"Indio, CA",369654,California
Scranton,PA,41.4044,-75.6649,"Scranton, PA",366334,Pennsylvania
Victorville,CA,34.5277,-117.3536,"Victorville, CA",364015,California
Trenton,NJ,40.2237,-74.7641,"Trenton, NJ",362179,New Jersey
Modesto,CA,37.6375,-121.0028,"Modesto, CA",354183,California
Huntsville,AL,34.6981,-86.6412,"Huntsville, AL",349482,Alabama
Honolulu,HI,21.3294,-157.846,"Honolulu, HI",348547,Hawaii
Greensboro,NC,36.0956,-79.8271,"Greensboro, NC",347130,North Carolina
Anaheim,CA,33.839,-117.8574,"Anaheim, CA",347111,California
Corpus Christi,TX,27.7254,-97.3767,"Corpus Christi, TX",337230,Texas
Fort Wayne,IN,41.0888,-85.1436,"Fort Wayne, IN",337163,Indiana
Fort Collins,CO,40.5477,-105.0656,"Fort Collins, CO",335398,Colorado
Jackson,MS,32.3157,-90.2125,"Jackson, MS",335171,Mississippi
Myrtle Beach,SC,33.7094,-78.8844,"Myrtle Beach, SC",332181,South Carolina
Fayetteville,NC,35.085,-78.9772,"Fayetteville, NC",328804,North Carolina
Antioch,CA,37.9787,-121.796,"Antioch, CA",327216,California
Lansing,MI,42.7142,-84.5601,"Lansing, MI",322561,Michigan
Lexington,KY,38.0423,-84.4587,"Lexington, KY",321276,Kentucky
Mobile,AL,30.6782,-88.1162,"Mobile, AL",320855,Alabama
Youngstown,OH,41.0993,-80.6463,"Youngstown, OH",319065,Ohio
Henderson,NV,36.0133,-115.0381,"Henderson, NV",318063,Nevada
Savannah,GA,32.0286,-81.1821,"Savannah, GA",316050,Georgia
Poughkeepsie,NY,41.695,-73.9211,"Poughkeepsie, NY",314159,New York
Santa Ana,CA,33.7367,-117.8819,"Santa Ana, CA",311379,California
Ann Arbor,MI,42.2759,-83.731,"Ann Arbor, MI",308983,Michigan
St. Paul,MN,44.9478,-93.1039,"St. Paul, MN",308806,Minnesota
Newark,NJ,40.7245,-74.1725,"Newark, NJ",307355,New Jersey
Irvine,CA,33.6772,-117.7738,"Irvine, CA",304527,California
Santa Rosa,CA,38.4458,-122.7067,"Santa Rosa, CA",296180,California
Canton,OH,40.8078,-81.3676,"Canton, OH",294047,Ohio
Asheville,NC,35.5707,-82.5537,"Asheville, NC",294013,North Carolina
Flint,MI,43.0236,-83.6921,"Flint, MI",293893,Michigan
Winter Haven,FL,28.0118,-81.7014,"Winter Haven, FL",293093,Florida
Anchorage,AK,61.1508,-149.1091,"Anchorage, AK",290674,Alaska
Lincoln,NE,40.8099,-96.6784,"Lincoln, NE",290531,Nebraska
Concord,NC,35.3933,-80.6369,"Concord, NC",288783,North Carolina
Jersey City,NJ,40.7184,-74.0686,"Jersey City, NJ",287899,New Jersey
Springfield,MO,37.1943,-93.2916,"Springfield, MO",286280,Missouri
Plano,TX,33.0502,-96.7486,"Plano, TX",284948,Texas
Shreveport,LA,32.4653,-93.7955,"Shreveport, LA",283536,Louisiana
Davenport,IA,41.5565,-90.6053,"Davenport, IA",281333,Iowa
Lubbock,TX,33.5657,-101.8879,"Lubbock, TX",280890,Texas
Lakeland,FL,28.0557,-81.9545,"Lakeland, FL",280346,Florida
South Bend,IN,41.6767,-86.2696,"South Bend, IN",278061,Indiana
Chula Vista,CA,32.6281,-117.0144,"Chula Vista, CA",276103,California
Chandler,AZ,33.2825,-111.8514,"Chandler, AZ",275618,Arizona
Rockford,IL,42.2596,-89.064,"Rockford, IL",273237,Illinois
Reading,PA,40.34,-75.9267,"Reading, PA",272712,Pennsylvania
Eugene,OR,44.0564,-123.1174,"Eugene, OR",270990,Oregon
Wilmington,NC,34.2099,-77.8866,"Wilmington, NC",268625,North Carolina
Santa Clarita,CA,34.4175,-118.4964,"Santa Clarita, CA",268273,California
Gilbert,AZ,33.31,-111.7463,"Gilbert, AZ",267267,Arizona
Salem,OR,44.9233,-123.0244,"Salem, OR",266420,Oregon
Killeen,TX,31.0753,-97.7297,"Killeen, TX",265921,Texas
Round Lake Beach,IL,42.3791,-88.0811,"Round Lake Beach, IL",264451,Illinois
Columbus,GA,32.51,-84.8771,"Columbus, GA",264282,Georgia
North Las Vegas,NV,36.2883,-115.0888,"North Las Vegas, NV",264022,Nevada
Kennewick,WA,46.1978,-119.1732,"Kennewick, WA",259995,Washington
St. Petersburg,FL,27.7931,-82.6652,"St. Petersburg, FL",259343,Florida
Tallahassee,FL,30.4551,-84.2527,"Tallahassee, FL",258696,Florida
Laredo,TX,27.5625,-99.4874,"Laredo, TX",255293,Texas
Irving,TX,32.8583,-96.9702,"Irving, TX",254962,Texas
Peoria,IL,40.752,-89.6154,"Peoria, IL",253467,Illinois
Montgomery,AL,32.3482,-86.2668,"Montgomery, AL",251158,Alabama
Chesapeake,VA,36.6778,-76.3023,"Chesapeake, VA",249377,Virginia
Glendale,AZ,33.5791,-112.2311,"Glendale, AZ",248083,Arizona
York,PA,39.9651,-76.7315,"York, PA",247176,Pennsylvania
Nashua,NH,42.7491,-71.491,"Nashua, NH",245209,New Hampshire
Garland,TX,32.91,-96.6304,"Garland, TX",244026,Texas
Scottsdale,AZ,33.6872,-111.8651,"Scottsdale, AZ",240537,Arizona
Lafayette,LA,30.2082,-92.0325,"Lafayette, LA",237565,Louisiana
Norfolk,VA,36.8945,-76.259,"Norfolk, VA",236973,Virginia
Arlington,VA,38.8786,-77.1011,"Arlington, VA",235845,Virginia
Appleton,WI,44.278,-88.3892,"Appleton, WI",233947,Wisconsin
Aguadilla,PR,18.4382,-67.1537,"Aguadilla, PR",228854,Puerto Rico
Rock Hill,SC,34.9415,-81.0241,"Rock Hill, SC",228811,South Carolina
Fremont,CA,37.5265,-121.9843,"Fremont, CA",228795,California
Fargo,ND,46.8651,-96.8292,"Fargo, ND",228364,North Dakota
Gulfport,MS,30.4274,-89.0704,"Gulfport, MS",228022,Mississippi
Bremerton,WA,47.5436,-122.7121,"Bremerton, WA",226805,Washington
Green Bay,WI,44.5148,-87.9895,"Green Bay, WI",225633,Wisconsin
Enterprise,NV,36.0091,-115.2278,"Enterprise, NV",225461,Nevada
Hialeah,FL,25.8696,-80.3045,"Hialeah, FL",222996,Florida
Deltona,FL,28.905,-81.2137,"Deltona, FL",221137,Florida
San Bernardino,CA,34.1416,-117.2943,"San Bernardino, CA",221041,California
Gainesville,FL,29.6804,-82.3459,"Gainesville, FL",220929,Florida
Spring Valley,NV,36.0952,-115.2636,"Spring Valley, NV",220114,Nevada
Tacoma,WA,47.2431,-122.4531,"Tacoma, WA",219234,Washington
Roanoke,VA,37.2785,-79.9581,"Roanoke, VA",218533,Virginia
Brownsville,TX,25.9975,-97.458,"Brownsville, TX",215269,Texas
College Station,TX,30.5852,-96.2959,"College Station, TX",213177,Texas
Olympia,WA,47.0417,-122.8959,"Olympia, WA",210877,Washington
Clarksville,TN,36.5692,-87.3413,"Clarksville, TN",210551,Tennessee
Yonkers,NY,40.9466,-73.8673,"Yonkers, NY",209780,New York
Moreno Valley,CA,33.9244,-117.2045,"Moreno Valley, CA",209578,California
Thousand Oaks,CA,34.1914,-118.8756,"Thousand Oaks, CA",209570,California
Portland,ME,43.6773,-70.2715,"Portland, ME",209491,Maine
Fontana,CA,34.0968,-117.4599,"Fontana, CA",209279,California
Hickory,NC,35.741,-81.3223,"Hickory, NC",206008,North Carolina
Amarillo,TX,35.1984,-101.8316,"Amarillo, TX",205903,Texas
Sioux Falls,SD,43.5396,-96.7311,"Sioux Falls, SD",204484,South Dakota
Evansville,IN,37.9881,-87.5341,"Evansville, IN",203661,Indiana
Huntington,WV,38.4109,-82.4345,"Huntington, WV",202754,West Virginia
Waterbury,CT,41.5582,-73.0361,"Waterbury, CT",202422,Connecticut
Frisco,TX,33.156,-96.8216,"Frisco, TX",202075,Texas
Lorain,OH,41.4409,-82.184,"Lorain, OH",201808,Ohio
Kalamazoo,MI,42.2749,-85.5882,"Kalamazoo, MI",200838,Michigan
Galveston,TX,29.2484,-94.8913,"Galveston, TX",200451,Texas
Spartanburg,SC,34.9442,-81.9251,"Spartanburg, SC",200000,South Carolina
Santa Barbara,CA,34.4285,-119.7202,"Santa Barbara, CA",199023,California
Sunrise Manor,NV,36.1783,-115.0487,"Sunrise Manor, NV",198325,Nevada
Huntington Beach,CA,33.696,-118.0018,"Huntington Beach, CA",197481,California
Grand Prairie,TX,32.6871,-97.0208,"Grand Prairie, TX",197279,Texas
Overland Park,KS,38.887,-94.687,"Overland Park, KS",196676,Kansas
McKinney,TX,33.2016,-96.667,"McKinney, TX",196160,Texas
Waco,TX,31.5599,-97.1882,"Waco, TX",195709,Texas
Hagerstown,MD,39.6401,-77.7217,"Hagerstown, MD",195261,Maryland
Glendale,CA,34.1819,-118.2468,"Glendale, CA",194512,California
Nampa,ID,43.5844,-116.5638,"Nampa, ID",193935,Idaho
Peoria,AZ,33.7843,-112.2989,"Peoria, AZ",191292,Arizona
Cedar Rapids,IA,41.9662,-91.6783,"Cedar Rapids, IA",191104,Iowa
Vancouver,WA,45.6366,-122.5967,"Vancouver, WA",190700,Washington
Paradise,NV,36.0872,-115.1355,"Paradise, NV",189733,Nevada
Ocala,FL,29.178,-82.1511,"Ocala, FL",186840,Florida
Erie,PA,42.1167,-80.0733,"Erie, PA",185556,Pennsylvania
Newport News,VA,37.1051,-76.5185,"Newport News, VA",185118,Virginia
Frederick,MD,39.4337,-77.4141,"Frederick, MD",184991,Maryland
Murfreesboro,TN,35.849,-86.4121,"Murfreesboro, TN",184763,Tennessee
Fort Lauderdale,FL,26.1412,-80.1464,"Fort Lauderdale, FL",182673,Florida
Aurora,IL,41.7638,-88.2902,"Aurora, IL",181405,Illinois
Tempe,AZ,33.3881,-111.9319,"Tempe, AZ",181005,Arizona
Danbury,CT,41.4015,-73.4709,"Danbury, CT",180143,Connecticut
Spring Hill,FL,28.4798,-82.53,"Spring Hill, FL",178833,Florida
Gastonia,NC,35.2494,-81.1854,"Gastonia, NC",178220,North Carolina
Salinas,CA,36.6883,-121.6317,"Salinas, CA",177410,California
Fredericksburg,VA,38.2992,-77.4872,"Fredericksburg, VA",176791,Virginia
Ontario,CA,34.0393,-117.6064,"Ontario, CA",176326,California
Elk Grove,CA,38.4161,-121.3842,"Elk Grove, CA",176105,California
Gainesville,GA,34.2902,-83.8294,"Gainesville, GA",175569,Georgia
Cary,NC,35.7819,-78.8195,"Cary, NC",174880,North Carolina
Rancho Cucamonga,CA,34.1247,-117.5667,"Rancho Cucamonga, CA",174696,California
Oceanside,CA,33.2247,-117.3083,"Oceanside, CA",173722,California
Garden Grove,CA,33.7787,-117.9601,"Garden Grove, CA",171637,California
Lancaster,CA,34.6935,-118.1753,"Lancaster, CA",171465,California
Hemet,CA,33.7341,-116.9969,"Hemet, CA",170621,California
Pembroke Pines,FL,26.0128,-80.3382,"Pembroke Pines, FL",170472,Florida
Panama City,FL,30.1995,-85.6003,"Panama City, FL",169810,Florida
Vallejo,CA,38.1125,-122.2342,"Vallejo, CA",169541,California
Manchester,NH,42.9848,-71.4447,"Manchester, NH",169097,New Hampshire
Medford,OR,42.3372,-122.854,"Medford, OR",168959,Oregon
Bayamón,PR,18.3794,-66.1635,"Bayamón, PR",168698,Puerto Rico
Mauldin,SC,34.7821,-82.3032,"Mauldin, SC",168313,South Carolina
Santa Cruz,CA,36.9789,-122.0346,"Santa Cruz, CA",167835,California
Palmdale,CA,34.5944,-118.1057,"Palmdale, CA",166895,California
Norwich,CT,41.5495,-72.0882,"Norwich, CT",166885,Connecticut
Muskegon,MI,43.2281,-86.2562,"Muskegon, MI",166847,Michigan
Leesburg,FL,28.7672,-81.8962,"Leesburg, FL",166200,Florida
High Point,NC,35.991,-79.9937,"High Point, NC",164836,North Carolina
Tuscaloosa,AL,33.2348,-87.5268,"Tuscaloosa, AL",164414,Alabama
Visalia,CA,36.3276,-119.3269,"Visalia, CA",163681,California
Marysville,WA,48.0809,-122.1561,"Marysville, WA",162664,Washington
Merced,CA,37.3057,-120.4779,"Merced, CA",160638,California
Hayward,CA,37.6328,-122.0766,"Hayward, CA",160602,California
Lafayette,IN,40.3991,-86.8593,"Lafayette, IN",160543,Indiana
Springfield,IL,39.7709,-89.654,"Springfield, IL",159671,Illinois
Corona,CA,33.8616,-117.5649,"Corona, CA",158346,California
Paterson,NJ,40.9147,-74.1624,"Paterson, NJ",157864,New Jersey
Alexandria,VA,38.8185,-77.0861,"Alexandria, VA",157594,Virginia
Macon,GA,32.8065,-83.6974,"Macon, GA",156554,Georgia
Binghamton,NY,42.1014,-75.9093,"Binghamton, NY",156375,New York
Lakewood,CO,39.6977,-105.1172,"Lakewood, CO",156149,Colorado
Kansas City,KS,39.1235,-94.7443,"Kansas City, KS",155438,Kansas
Odessa,TX,31.8801,-102.3448,"Odessa, TX",155039,Texas
Sunnyvale,CA,37.3836,-122.0255,"Sunnyvale, CA",154573,California
New Bedford,MA,41.6697,-70.9428,"New Bedford, MA",153701,Massachusetts
Hollywood,FL,26.0293,-80.1679,"Hollywood, FL",152764,Florida
South Lyon,MI,42.4614,-83.6526,"South Lyon, MI",152132,Michigan
Escondido,CA,33.1348,-117.0723,"Escondido, CA",151114,California
Lake Charles,LA,30.201,-93.2111,"Lake Charles, LA",151109,Louisiana
Pasadena,TX,29.6575,-95.1498,"Pasadena, TX",150620,Texas
Bellevue,WA,47.5951,-122.1535,"Bellevue, WA",150606,Washington
Joliet,IL,41.5188,-88.1499,"Joliet, IL",150221,Illinois
Champaign,IL,40.1142,-88.2737,"Champaign, IL",150179,Illinois
Pomona,CA,34.0585,-117.7626,"Pomona, CA",149831,California
Fairfield,CA,38.2583,-122.0335,"Fairfield, CA",149635,California
Mesquite,TX,32.7602,-96.5865,"Mesquite, TX",149439,Texas
Elkhart,IN,41.6916,-85.9627,"Elkhart, IN",149423,Indiana
Naperville,IL,41.748,-88.1659,"Naperville, IL",149089,Illinois
St. George,UT,37.0758,-113.5752,"St. George, UT",148895,Utah
Roseville,CA,38.7703,-121.3196,"Roseville, CA",148879,California
Topeka,KS,39.0346,-95.6955,"Topeka, KS",148185,Kansas
Burlington,NC,36.076,-79.4685,"Burlington, NC",147415,North Carolina
Warner Robins,GA,32.5961,-83.6527,"Warner Robins, GA",146790,Georgia
Surprise,AZ,33.6815,-112.4515,"Surprise, AZ",145591,Arizona
Torrance,CA,33.8346,-118.3416,"Torrance, CA",145454,California
Santa Maria,CA,34.9333,-120.4431,"Santa Maria, CA",143647,California
Athens,GA,33.9508,-83.3689,"Athens, GA",143173,Georgia
Houma,LA,29.58,-90.7059,"Houma, LA",143160,Louisiana
Columbia,MO,38.9472,-92.3268,"Columbia, MO",142637,Missouri
Fullerton,CA,33.8841,-117.9279,"Fullerton, CA",142280,California
Olathe,KS,38.8833,-94.82,"Olathe, KS",142114,Kansas
Thornton,CO,39.9197,-104.9438,"Thornton, CO",141799,Colorado
Greeley,CO,40.4152,-104.7706,"Greeley, CO",140984,Colorado
Beaumont,TX,30.0849,-94.1451,"Beaumont, TX",140930,Texas
Las Cruces,NM,32.3265,-106.7893,"Las Cruces, NM",140915,New Mexico
Midland,TX,32.0243,-102.1147,"Midland, TX",140171,Texas
Metairie,LA,29.9977,-90.178,"Metairie, LA",140046,Louisiana
Carolina,PR,18.4054,-65.9792,"Carolina, PR",139201,Puerto Rico
West Valley City,UT,40.6886,-112.0123,"West Valley City, UT",138868,Utah
Orange,CA,33.8038,-117.8218,"Orange, CA",138728,California
Warren,MI,42.4934,-83.027,"Warren, MI",138588,Michigan
Grand Junction,CO,39.0877,-108.5673,"Grand Junction, CO",138416,Colorado
Tyler,TX,32.3184,-95.3062,"Tyler, TX",138024,Texas
Pasadena,CA,34.1597,-118.139,"Pasadena, CA",137554,California
Hampton,VA,37.0551,-76.363,"Hampton, VA",137217,Virginia
Bloomington,IL,40.4757,-88.9703,"Bloomington, IL",136524,Illinois
Elizabeth,NJ,40.6658,-74.1913,"Elizabeth, NJ",135665,New Jersey
Stamford,CT,41.1039,-73.5585,"Stamford, CT",135413,Connecticut
Yuma,AZ,32.5995,-114.5491,"Yuma, AZ",135389,Arizona
Kent,WA,47.3887,-122.2128,"Kent, WA",135169,Washington
Miramar,FL,25.9773,-80.3351,"Miramar, FL",135158,Florida
Coeur d'Alene,ID,47.704,-116.7936,"Coeur d'Alene, ID",134503,Idaho
Coral Springs,FL,26.2702,-80.2591,"Coral Springs, FL",133801,Florida
Sterling Heights,MI,42.5809,-83.0305,"Sterling Heights, MI",133744,Michigan
Yuba City,CA,39.1357,-121.6383,"Yuba City, CA",133106,California
Yakima,WA,46.5923,-120.5496,"Yakima, WA",132354,Washington
Carrollton,TX,32.989,-96.8999,"Carrollton, TX",132284,Texas
Racine,WI,42.7274,-87.8135,"Racine, WI",132006,Wisconsin
Johnson City,TN,36.3406,-82.3806,"Johnson City, TN",131718,Tennessee
Billings,MT,45.7891,-108.5526,"Billings, MT",131519,Montana
Iowa City,IA,41.6559,-91.5303,"Iowa City, IA",130736,Iowa
Dover,DE,39.161,-75.5202,"Dover, DE",130186,Delaware
Bellingham,WA,48.7548,-122.469,"Bellingham, WA",129880,Washington
Charleston,WV,38.3484,-81.6322,"Charleston, WV",129754,West Virginia
Lynchburg,VA,37.4003,-79.1909,"Lynchburg, VA",128849,Virginia
Santa Clara,CA,37.3646,-121.968,"Santa Clara, CA",128058,California
Norman,OK,35.2335,-97.3471,"Norman, OK",127701,Oklahoma
Greenville,NC,35.5943,-77.376,"Greenville, NC",127574,North Carolina
Simi Valley,CA,34.2663,-118.749,"Simi Valley, CA",127568,California
Fort Smith,AR,35.3495,-94.3695,"Fort Smith, AR",126452,Arkansas
Abilene,TX,32.4543,-99.7384,"Abilene, TX",126356,Texas
Arecibo,PR,18.4491,-66.7387,"Arecibo, PR",125727,Puerto Rico
Lewisville,TX,33.0454,-96.9815,"Lewisville, TX",125028,Texas
Pearland,TX,29.5581,-95.3218,"Pearland, TX",124478,Texas
Lehigh Acres,FL,26.612,-81.6388,"Lehigh Acres, FL",124440,Florida
Kenosha,WI,42.5865,-87.8773,"Kenosha, WI",124297,Wisconsin
Seaside,CA,36.6224,-121.8199,"Seaside, CA",123421,California
Burlington,VT,44.4876,-73.2316,"Burlington, VT",123307,Vermont
Arvada,CO,39.832,-105.151,"Arvada, CO",123066,Colorado
Waldorf,MD,38.6085,-76.9194,"Waldorf, MD",122310,Maryland
Independence,MO,39.0871,-94.3501,"Independence, MO",122218,Missouri
Rochester,MN,44.0154,-92.478,"Rochester, MN",121870,Minnesota
Logan,UT,41.7399,-111.8422,"Logan, UT",121666,Utah
Harlingen,TX,26.1916,-97.6977,"Harlingen, TX",121441,Texas
Berkeley,CA,37.8722,-122.276,"Berkeley, CA",121385,California
Clovis,CA,36.8278,-119.683,"Clovis, CA",120607,California
Round Rock,TX,30.527,-97.6642,"Round Rock, TX",120465,Texas
Pueblo,CO,38.2701,-104.6114,"Pueblo, CO",120380,Colorado
Temple,TX,31.1068,-97.3891,"Temple, TX",120240,Texas
Meridian,ID,43.6116,-116.3977,"Meridian, ID",119872,Idaho
Duluth,MN,46.7756,-92.1393,"Duluth, MN",118574,Minnesota
The Woodlands,TX,30.1738,-95.5134,"The Woodlands, TX",118402,Texas
Boulder,CO,40.0248,-105.2524,"Boulder, CO",118090,Colorado
Richardson,TX,32.9716,-96.7093,"Richardson, TX",118063,Texas
Cambridge,MA,42.3759,-71.1185,"Cambridge, MA",117962,Massachusetts
West Palm Beach,FL,26.7469,-80.132,"West Palm Beach, FL",117588,Florida
Port Arthur,TX,29.8554,-93.9264,"Port Arthur, TX",117348,Texas
East Los Angeles,CA,34.0326,-118.1691,"East Los Angeles, CA",117222,California
Redding,CA,40.5698,-122.365,"Redding, CA",117163,California
Clearwater,FL,27.979,-82.7623,"Clearwater, FL",116984,Florida
Monroe,LA,32.5185,-92.0774,"Monroe, LA",116927,Louisiana
Utica,NY,43.0962,-75.2261,"Utica, NY",116766,New York
St. Cloud,MN,45.534,-94.1718,"St. Cloud, MN",116649,Minnesota
Mandeville,LA,30.3751,-90.0904,"Mandeville, LA",116649,Louisiana
West Jordan,UT,40.6024,-112.0008,"West Jordan, UT",116383,Utah
North Charleston,SC,32.9067,-80.0722,"North Charleston, SC",115755,South Carolina
Richmond,CA,37.9477,-122.3389,"Richmond, CA",115619,California
Westminster,CO,39.8837,-105.0624,"Westminster, CO",115502,Colorado
Saginaw,MI,43.4199,-83.9501,"Saginaw, MI",115442,Michigan
Kailua,HI,21.392,-157.7396,"Kailua, HI",115264,Hawaii
Brandon,FL,27.9367,-82.3,"Brandon, FL",114923,Florida
Ponce,PR,18.0127,-66.6212,"Ponce, PR",114901,Puerto Rico
Carlsbad,CA,33.1246,-117.2834,"Carlsbad, CA",114745,California
Lowell,MA,42.6389,-71.3217,"Lowell, MA",114737,Massachusetts
Broken Arrow,OK,36.038,-95.7806,"Broken Arrow, OK",114237,Oklahoma
Elgin,IL,42.0383,-88.324,"Elgin, IL",114190,Illinois
Gresham,OR,45.5021,-122.4413,"Gresham, OR",113525,Oregon
League City,TX,29.4874,-95.1087,"League City, TX",113469,Texas
Downey,CA,33.9379,-118.1311,"Downey, CA",113052,California
Waterloo,IA,42.4918,-92.3522,"Waterloo, IA",112333,Iowa
Murrieta,CA,33.5719,-117.1909,"Murrieta, CA",111899,California
Leominster,MA,42.5209,-71.7717,"Leominster, MA",111856,Massachusetts
Longview,TX,32.5193,-94.7622,"Longview, TX",111855,Texas
Jacksonville,NC,34.7289,-77.3941,"Jacksonville, NC",111830,North Carolina
Pompano Beach,FL,26.2428,-80.1312,"Pompano Beach, FL",111790,Florida
Bend,OR,44.0563,-121.3095,"Bend, OR",111774,Oregon
Miami Gardens,FL,25.9433,-80.2426,"Miami Gardens, FL",111618,Florida
Costa Mesa,CA,33.6667,-117.9135,"Costa Mesa, CA",111490,California
Sioux City,IA,42.4959,-96.3901,"Sioux City, IA",111361,Iowa
Everett,WA,47.9525,-122.1669,"Everett, WA",110847,Washington
Gilroy,CA,37.0046,-121.5854,"Gilroy, CA",110720,California
San Buenaventura,CA,34.2741,-119.2314,"San Buenaventura, CA",110358,California
Temecula,CA,33.4928,-117.1315,"Temecula, CA",110114,California
Sugar Land,TX,29.5935,-95.6358,"Sugar Land, TX",110077,Texas
Chico,CA,39.7578,-121.8161,"Chico, CA",110001,California
Eau Claire,WI,44.8197,-91.4948,"Eau Claire, WI",109491,Wisconsin
El Monte,CA,34.0739,-118.0291,"El Monte, CA",108682,California
Idaho Falls,ID,43.4871,-112.0362,"Idaho Falls, ID",108544,Idaho
Dearborn,MI,42.3127,-83.213,"Dearborn, MI",108414,Michigan
Bloomington,IN,39.1637,-86.5257,"Bloomington, IN",108387,Indiana
West Covina,CA,34.0555,-117.9113,"West Covina, CA",108173,California
Sparks,NV,39.5736,-119.7161,"Sparks, NV",108025,Nevada
South Fulton,GA,33.6273,-84.58,"South Fulton, GA",107865,Georgia
Centennial,CO,39.5926,-104.8673,"Centennial, CO",107702,Colorado
Sandy Springs,GA,33.9366,-84.3703,"Sandy Springs, GA",107221,Georgia
Inglewood,CA,33.9566,-118.3444,"Inglewood, CA",106806,California
Hillsboro,OR,45.5273,-122.936,"Hillsboro, OR",106612,Oregon
Columbia,MD,39.2004,-76.859,"Columbia, MD",106600,Maryland
Burbank,CA,34.1879,-118.3235,"Burbank, CA",106389,California
Davie,FL,26.0789,-80.287,"Davie, FL",105821,Florida
El Cajon,CA,32.8017,-116.9604,"El Cajon, CA",105721,California
Jurupa Valley,CA,34.001,-117.4706,"Jurupa Valley, CA",105672,California
Allen,TX,33.1088,-96.6735,"Allen, TX",105444,Texas
Auburn,AL,32.6087,-85.4903,"Auburn, AL",105386,Alabama
Renton,WA,47.4784,-122.1918,"Renton, WA",105355,Washington
Holland,MI,42.7677,-86.0984,"Holland, MI",105134,Michigan
Brockton,MA,42.0821,-71.0242,"Brockton, MA",104713,Massachusetts
Rio Rancho,NM,35.2873,-106.6982,"Rio Rancho, NM",104351,New Mexico
San Mateo,CA,37.5522,-122.3121,"San Mateo, CA",104165,California
Rialto,CA,34.1175,-117.3892,"Rialto, CA",103873,California
Spokane Valley,WA,47.6626,-117.2346,"Spokane Valley, WA",103761,Washington
Charlottesville,VA,38.0375,-78.4855,"Charlottesville, VA",103760,Virginia
Menifee,CA,33.6909,-117.1849,"Menifee, CA",103680,California
Daly City,CA,37.6862,-122.4685,"Daly City, CA",103648,California
Wichita Falls,TX,33.9072,-98.5291,"Wichita Falls, TX",102482,Texas
Riverview,FL,27.8227,-82.3023,"Riverview, FL",102467,Florida
Norwalk,CA,33.9069,-118.0829,"Norwalk, CA",101893,California
Lee's Summit,MO,38.9171,-94.3816,"Lee's Summit, MO",101728,Missouri
Longmont,CO,40.1686,-105.1005,"Longmont, CO",101642,Colorado
Vacaville,CA,38.3587,-121.9673,"Vacaville, CA",101631,California
Highlands Ranch,CO,39.5419,-104.9708,"Highlands Ranch, CO",101514,Colorado
Kingsport,TN,36.5224,-82.5454,"Kingsport, TN",101323,Tennessee
San Tan Valley,AZ,33.1786,-111.5629,"San Tan Valley, AZ",101207,Arizona
Quincy,MA,42.2506,-71.0187,"Quincy, MA",100981,Massachusetts
Edinburg,TX,26.3196,-98.1597,"Edinburg, TX",100964,Texas
Lynn,MA,42.4781,-70.9664,"Lynn, MA",100653,Massachusetts
San Angelo,TX,31.4424,-100.4504,"San Angelo, TX",100057,Texas
Hesperia,CA,34.3975,-117.3147,"Hesperia, CA",99878,California
Bowling Green,KY,36.9716,-86.4378,"Bowling Green, KY",99669,Kentucky
Federal Way,WA,47.3091,-122.3358,"Federal Way, WA",99614,Washington
Carmel,IN,39.965,-86.146,"Carmel, IN",99453,Indiana
Bismarck,ND,46.8143,-100.7694,"Bismarck, ND",99433,North Dakota
Fishers,IN,39.9588,-85.9659,"Fishers, IN",99041,Indiana
Lafayette,CO,39.9946,-105.0998,"Lafayette, CO",98889,Colorado
Vista,CA,33.1896,-117.2386,"Vista, CA",98392,California
Boca Raton,FL,26.3752,-80.108,"Boca Raton, FL",97980,Florida
St. Augustine,FL,29.8976,-81.31,"St. Augustine, FL",97703,Florida
Beaverton,OR,45.4779,-122.8168,"Beaverton, OR",97554,Oregon
Goodyear,AZ,33.2614,-112.3622,"Goodyear, AZ",97542,Arizona
Portsmouth,VA,36.8468,-76.354,"Portsmouth, VA",97384,Virginia
Orem,UT,40.2981,-111.6994,"Orem, UT",97100,Utah
Sunrise,FL,26.1547,-80.2997,"Sunrise, FL",96510,Florida
Portsmouth,NH,43.058,-70.7826,"Portsmouth, NH",96146,New Hampshire
Arden-Arcade,CA,38.6017,-121.3845,"Arden-Arcade, CA",96076,California
Lawrence,KS,38.9597,-95.2642,"Lawrence, KS",96061,Kansas
Sandy,UT,40.5709,-111.8506,"Sandy, UT",95635,Utah
Slidell,LA,30.2887,-89.7828,"Slidell, LA",95528,Louisiana
Buckeye,AZ,33.4314,-112.6429,"Buckeye, AZ",95042,Arizona
Livonia,MI,42.3972,-83.3733,"Livonia, MI",94928,Michigan
Williamsburg,VA,37.2693,-76.7076,"Williamsburg, VA",94892,Virginia
Suffolk,VA,36.6953,-76.6398,"Suffolk, VA",94856,Virginia
Compton,CA,33.893,-118.2274,"Compton, CA",94822,California
La Crosse,WI,43.8241,-91.2268,"La Crosse, WI",94627,Wisconsin
Edmond,OK,35.6689,-97.416,"Edmond, OK",94503,Oklahoma
Carson,CA,33.8374,-118.2559,"Carson, CA",94475,California
San Marcos,CA,33.135,-117.1743,"San Marcos, CA",94360,California
Tracy,CA,37.7269,-121.4523,"Tracy, CA",94027,California
Prescott Valley,AZ,34.598,-112.3185,"Prescott Valley, AZ",93923,Arizona
Middletown,OH,39.5033,-84.3659,"Middletown, OH",93870,Ohio
Fall River,MA,41.7136,-71.1015,"Fall River, MA",93638,Massachusetts
San Germán,PR,18.0827,-67.046,"San Germán, PR",93549,Puerto Rico
Santa Fe,NM,35.6619,-105.9819,"Santa Fe, NM",93165,New Mexico
Plantation,FL,26.1259,-80.2617,"Plantation, FL",93130,Florida
Mayagüez,PR,18.2003,-67.1397,"Mayagüez, PR",93079,Puerto Rico
New Braunfels,TX,29.6994,-98.1148,"New Braunfels, TX",92993,Texas
Roswell,GA,34.0391,-84.3513,"Roswell, GA",92770,Georgia
Conroe,TX,30.3238,-95.4824,"Conroe, TX",92475,Texas
South Gate,CA,33.9447,-118.1926,"South Gate, CA",92381,California
Santa Monica,CA,34.0235,-118.481,"Santa Monica, CA",92168,California
Kirkland,WA,47.697,-122.2057,"Kirkland, WA",92015,Washington
Hoover,AL,33.3763,-86.8068,"Hoover, AL",91995,Alabama
O'Fallon,MO,38.785,-90.7175,"O'Fallon, MO",91825,Missouri
Alafaya,FL,28.528,-81.1868,"Alafaya, FL",91531,Florida
Palm Coast,FL,29.5389,-81.2457,"Palm Coast, FL",91082,Florida
Norwalk,CT,41.1144,-73.4215,"Norwalk, CT",91050,Connecticut
Lawton,OK,34.6175,-98.4202,"Lawton, OK",91023,Oklahoma
Chino,CA,33.9836,-117.6654,"Chino, CA",91008,California
Mount Pleasant,SC,32.8537,-79.8203,"Mount Pleasant, SC",90945,South Carolina
Manteca,CA,37.7927,-121.2264,"Manteca, CA",90678,California
Westminster,CA,33.7523,-117.9938,"Westminster, CA",90638,California
Florence,SC,34.178,-79.7898,"Florence, SC",90419,South Carolina
Joplin,MO,37.0757,-94.5018,"Joplin, MO",90384,Missouri
Germantown,MD,39.1755,-77.2643,"Germantown, MD",90210,Maryland
San Leandro,CA,37.7074,-122.1599,"San Leandro, CA",89723,California
Town 'n' Country,FL,28.0106,-82.5763,"Town 'n' Country, FL",89456,Florida
Clifton,NJ,40.863,-74.1575,"Clifton, NJ",89451,New Jersey
Waukegan,IL,42.3698,-87.8716,"Waukegan, IL",89435,Illinois
Bloomington,MN,44.8306,-93.3151,"Bloomington, MN",89244,Minnesota
Avondale,AZ,33.3873,-112.3235,"Avondale, AZ",89214,Arizona
Atascocita,TX,29.9777,-95.1953,"Atascocita, TX",89121,Texas
Missoula,MT,46.8751,-114.0214,"Missoula, MT",88780,Montana
Fort Myers,FL,26.6194,-81.8302,"Fort Myers, FL",88699,Florida
Newton,MA,42.3316,-71.2085,"Newton, MA",88453,Massachusetts
Lawrence,MA,42.7002,-71.1626,"Lawrence, MA",88067,Massachusetts
Muncie,IN,40.1989,-85.395,"Muncie, IN",88061,Indiana
Rapid City,SD,44.0716,-103.2204,"Rapid City, SD",87826,South Dakota
Troy,MI,42.5817,-83.1457,"Troy, MI",87170,Michigan
Livermore,CA,37.6868,-121.7607,"Livermore, CA",87154,California
Citrus Heights,CA,38.6948,-121.288,"Citrus Heights, CA",87127,California
Hawthorne,CA,33.9147,-118.3476,"Hawthorne, CA",86978,California
Winchester,VA,39.1735,-78.1746,"Winchester, VA",86813,Virginia
Springdale,AR,36.1901,-94.1574,"Springdale, AR",86705,Arkansas
Whittier,CA,33.9678,-118.0188,"Whittier, CA",86459,California
Deerfield Beach,FL,26.305,-80.1277,"Deerfield Beach, FL",86455,Florida
Decatur,IL,39.8557,-88.9342,"Decatur, IL",86231,Illinois
San Ramon,CA,37.7624,-121.9365,"San Ramon, CA",86119,California
Vineland,NJ,39.4653,-74.9981,"Vineland, NJ",86042,New Jersey
Mission,TX,26.2039,-98.3256,"Mission, TX",85755,Texas
Auburn,WA,47.3039,-122.2108,"Auburn, WA",85623,Washington
Lake Forest,CA,33.6605,-117.6714,"Lake Forest, CA",85583,California
Newport Beach,CA,33.6151,-117.8668,"Newport Beach, CA",85159,California
Melbourne,FL,28.1086,-80.6627,"Melbourne, FL",84982,Florida
Brooklyn Park,MN,45.1112,-93.3505,"Brooklyn Park, MN",84951,Minnesota
Bryan,TX,30.665,-96.3807,"Bryan, TX",84820,Texas
Westland,MI,42.3192,-83.3805,"Westland, MI",84806,Michigan
Napa,CA,38.2975,-122.301,"Napa, CA",84703,California
Baytown,TX,29.7587,-94.9671,"Baytown, TX",84449,Texas
Cicero,IL,41.8445,-87.7593,"Cicero, IL",84189,Illinois
Anderson,IN,40.0891,-85.6892,"Anderson, IN",83875,Indiana
Franklin,TN,35.92,-86.8516,"Franklin, TN",83630,Tennessee
Farmington Hills,MI,42.486,-83.3771,"Farmington Hills, MI",83562,Michigan
Buena Park,CA,33.8572,-118.0046,"Buena Park, CA",83542,California
Albany,GA,31.5776,-84.1762,"Albany, GA",83447,Georgia
Pine Hills,FL,28.5818,-81.4692,"Pine Hills, FL",83221,Florida
State College,PA,40.7909,-77.8567,"State College, PA",83170,Pennsylvania
Redwood City,CA,37.5025,-122.2253,"Redwood City, CA",83077,California
Warwick,RI,41.7062,-71.4334,"Warwick, RI",82783,Rhode Island
Jackson,MI,42.2431,-84.4038,"Jackson, MI",82775,Michigan
Cranston,RI,41.7658,-71.4858,"Cranston, RI",82691,Rhode Island
Largo,FL,27.9088,-82.7712,"Largo, FL",82541,Florida
Miami Beach,FL,25.8171,-80.1396,"Miami Beach, FL",82400,Florida
Alhambra,CA,34.084,-118.1355,"Alhambra, CA",82295,California
Johns Creek,GA,34.0333,-84.2027,"Johns Creek, GA",82230,Georgia
Mountain View,CA,37.4001,-122.0796,"Mountain View, CA",82132,California
Salisbury,MD,38.3756,-75.5865,"Salisbury, MD",81921,Maryland
Morgantown,WV,39.6383,-79.9464,"Morgantown, WV",81912,West Virginia
Silver Spring,MD,39.0028,-77.0207,"Silver Spring, MD",81808,Maryland
Layton,UT,41.077,-111.962,"Layton, UT",81726,Utah
Springfield,OH,39.93,-83.7959,"Springfield, OH",81620,Ohio
Lakewood,CA,33.8471,-118.1222,"Lakewood, CA",81499,California
Florence,AL,34.8303,-87.6655,"Florence, AL",81268,Alabama
Folsom,CA,38.6668,-121.1422,"Folsom, CA",81077,California
Madera,CA,36.963,-120.0778,"Madera, CA",80937,California
New Rochelle,NY,40.9304,-73.7836,"New Rochelle, NY",80828,New York
Parma,OH,41.3843,-81.7286,"Parma, OH",80587,Ohio
Terre Haute,IN,39.466,-87.3751,"Terre Haute, IN",80567,Indiana
Somerville,MA,42.3908,-71.1014,"Somerville, MA",80464,Massachusetts
Flagstaff,AZ,35.1872,-111.6194,"Flagstaff, AZ",80167,Arizona
Boynton Beach,FL,26.5281,-80.0811,"Boynton Beach, FL",80068,Florida
Homestead,FL,25.4665,-80.4472,"Homestead, FL",79996,Florida
Newark,OH,40.0706,-82.425,"Newark, OH",79959,Ohio
Plymouth,MN,45.0225,-93.4617,"Plymouth, MN",79918,Minnesota
Anniston,AL,33.6712,-85.8135,"Anniston, AL",79717,Alabama
Texarkana,TX,33.45,-94.0847,"Texarkana, TX",79570,Texas
Tustin,CA,33.7311,-117.8107,"Tustin, CA",79514,California
Pharr,TX,26.1685,-98.1904,"Pharr, TX",79434,Texas
Port Huron,MI,42.9821,-82.4388,"Port Huron, MI",79363,Michigan
Turlock,CA,37.5053,-120.8588,"Turlock, CA",79301,California
Rancho Cordova,CA,38.5737,-121.2527,"Rancho Cordova, CA",79128,California
The Villages,FL,28.9034,-81.9887,"The Villages, FL",79108,Florida
Milpitas,CA,37.4336,-121.8921,"Milpitas, CA",79092,California
Perris,CA,33.7898,-117.2233,"Perris, CA",78881,California
Upland,CA,34.1178,-117.6604,"Upland, CA",78847,California
Alton,IL,38.9037,-90.152,"Alton, IL",78729,Illinois
Pleasanton,CA,37.6663,-121.8805,"Pleasanton, CA",78691,California
Kendall,FL,25.6697,-80.3556,"Kendall, FL",78402,Florida
Jonesboro,AR,35.8212,-90.6791,"Jonesboro, AR",78379,Arkansas
Bellflower,CA,33.888,-118.1271,"Bellflower, CA",78352,California
Battle Creek,MI,42.2985,-85.2296,"Battle Creek, MI",78338,Michigan
Chino Hills,CA,33.9508,-117.7254,"Chino Hills, CA",78223,California
Cheyenne,WY,41.135,-104.7902,"Cheyenne, WY",78204,Wyoming
Lebanon,PA,40.3412,-76.4228,"Lebanon, PA",78147,Pennsylvania
Carmichael,CA,38.6318,-121.3263,"Carmichael, CA",78144,California
South Jordan,UT,40.557,-111.9784,"South Jordan, UT",78118,Utah
Davis,CA,38.5553,-121.737,"Davis, CA",77874,California
Elizabethtown,KY,37.7031,-85.8773,"Elizabethtown, KY",77770,Kentucky
Schaumburg,IL,42.0308,-88.0838,"Schaumburg, IL",77571,Illinois
Alameda,CA,37.7668,-122.267,"Alameda, CA",77565,California
Hammond,IN,41.6168,-87.4909,"Hammond, IN",77390,Indiana
Pasco,WA,46.2506,-119.1305,"Pasco, WA",77274,Washington
Evanston,IL,42.0464,-87.6943,"Evanston, IL",77181,Illinois
Lehi,UT,40.4136,-111.8725,"Lehi, UT",77110,Utah
Alexandria,LA,31.2923,-92.4702,"Alexandria, LA",77109,Louisiana
North Port,FL,27.0576,-82.1977,"North Port, FL",76975,Florida
Arlington Heights,IL,42.0955,-87.9826,"Arlington Heights, IL",76794,Illinois
Camarillo,CA,34.223,-119.0321,"Camarillo, CA",76748,California
Wyoming,MI,42.8908,-85.7066,"Wyoming, MI",76732,Michigan
Flower Mound,TX,33.0343,-97.1146,"Flower Mound, TX",76630,Texas
Bethlehem,PA,40.6266,-75.3679,"Bethlehem, PA",76555,Pennsylvania
Hattiesburg,MS,31.3074,-89.317,"Hattiesburg, MS",76501,Mississippi
Loveland,CO,40.4166,-105.0623,"Loveland, CO",76500,Colorado
Pittsburg,CA,38.0182,-121.8965,"Pittsburg, CA",76419,California
Cedar Park,TX,30.5105,-97.8197,"Cedar Park, TX",76344,Texas
Wenatchee,WA,47.436,-120.3295,"Wenatchee, WA",76152,Washington
Southfield,MI,42.4765,-83.2605,"Southfield, MI",76107,Michigan
Rochester Hills,MI,42.6645,-83.1563,"Rochester Hills, MI",76041,Michigan
Hammond,LA,30.5061,-90.4563,"Hammond, LA",76032,Louisiana
Valdosta,GA,30.8502,-83.2788,"Valdosta, GA",75919,Georgia
Owensboro,KY,37.7575,-87.1172,"Owensboro, KY",75644,Kentucky
Apple Valley,CA,34.5352,-117.2109,"Apple Valley, CA",75603,California
Woodbury,MN,44.9057,-92.923,"Woodbury, MN",75549,Minnesota
Pawtucket,RI,41.8744,-71.3743,"Pawtucket, RI",75176,Rhode Island
St. Joseph,MO,39.7598,-94.821,"St. Joseph, MO",75033,Missouri
Doral,FL,25.8152,-80.3565,"Doral, FL",74891,Florida
Dover,NH,43.1887,-70.8845,"Dover, NH",74554,New Hampshire
Missouri City,TX,29.563,-95.5365,"Missouri City, TX",74517,Texas
Saratoga Springs,NY,43.0674,-73.7775,"Saratoga Springs, NY",74339,New York
Pocatello,ID,42.8724,-112.4647,"Pocatello, ID",74284,Idaho
Oshkosh,WI,44.0227,-88.5619,"Oshkosh, WI",74251,Wisconsin
New Britain,CT,41.6759,-72.7862,"New Britain, CT",74212,Connecticut
Castle Rock,CO,39.3763,-104.8535,"Castle Rock, CO",74065,Colorado
Lauderhill,FL,26.1605,-80.2241,"Lauderhill, FL",73987,Florida
Broomfield,CO,39.9542,-105.0526,"Broomfield, CO",73946,Colorado
Dale City,VA,38.6473,-77.3459,"Dale City, VA",73928,Virginia
Bolingbrook,IL,41.6901,-88.1021,"Bolingbrook, IL",73755,Illinois
Redmond,WA,47.6763,-122.1169,"Redmond, WA",73728,Washington
Caguas,PR,18.2319,-66.0388,"Caguas, PR",73713,Puerto Rico
Mansfield,TX,32.569,-97.1213,"Mansfield, TX",73680,Texas
Ellicott City,MD,39.2774,-76.8345,"Ellicott City, MD",73589,Maryland
Sheboygan,WI,43.7403,-87.7316,"Sheboygan, WI",73531,Wisconsin
Mansfield,OH,40.7656,-82.5275,"Mansfield, OH",73448,Ohio
Glens Falls,NY,43.3109,-73.6458,"Glens Falls, NY",73424,New York
Daytona Beach,FL,29.1995,-81.0982,"Daytona Beach, FL",73329,Florida
Lodi,CA,38.1218,-121.2932,"Lodi, CA",73239,California
Redlands,CA,34.0512,-117.1712,"Redlands, CA",73234,California
Harrisonburg,VA,38.4362,-78.8735,"Harrisonburg, VA",73160,Virginia
Dothan,AL,31.2336,-85.407,"Dothan, AL",73037,Alabama
Cleveland,TN,35.1817,-84.8707,"Cleveland, TN",72870,Tennessee
Jackson,TN,35.6538,-88.8354,"Jackson, TN",72836,Tennessee
Mount Vernon,NY,40.9136,-73.8291,"Mount Vernon, NY",72817,New York
Centreville,VA,38.839,-77.4389,"Centreville, VA",72680,Virginia
Altoona,PA,40.5082,-78.4007,"Altoona, PA",72348,Pennsylvania
Framingham,MA,42.3085,-71.4368,"Framingham, MA",71805,Massachusetts
Camden,NJ,39.9361,-75.1073,"Camden, NJ",71799,New Jersey
Georgetown,TX,30.666,-97.6966,"Georgetown, TX",71788,Texas
Baldwin Park,CA,34.0829,-117.9722,"Baldwin Park, CA",71692,California
Rocklin,CA,38.8075,-121.2489,"Rocklin, CA",71676,California
Porterville,CA,36.0643,-119.0338,"Porterville, CA",71669,California
Tamarac,FL,26.2056,-80.2539,"Tamarac, FL",71578,Florida
Glen Burnie,MD,39.156,-76.6071,"Glen Burnie, MD",71427,Maryland
Blacksburg,VA,37.23,-80.4279,"Blacksburg, VA",71277,Virginia
Wausau,WI,44.962,-89.6459,"Wausau, WI",71236,Wisconsin
Sumter,SC,33.9392,-80.393,"Sumter, SC",71234,South Carolina
Janesville,WI,42.6854,-89.0135,"Janesville, WI",71202,Wisconsin
Brunswick,GA,31.1449,-81.4746,"Brunswick, GA",71160,Georgia
Dublin,CA,37.7161,-121.8963,"Dublin, CA",71068,California
Wilmington,DE,39.7415,-75.5416,"Wilmington, DE",71034,Delaware
Waukesha,WI,43.0087,-88.2464,"Waukesha, WI",70945,Wisconsin
Fairbanks,AK,64.8353,-147.6533,"Fairbanks, AK",70817,Alaska
Lakeville,MN,44.6774,-93.252,"Lakeville, MN",70696,Minnesota
St. Charles,MO,38.7954,-90.5157,"St. Charles, MO",70687,Missouri
Redondo Beach,CA,33.8577,-118.3765,"Redondo Beach, CA",70620,California
Spring Hill,TN,35.7437,-86.9116,"Spring Hill, TN",70531,Tennessee
Bayonne,NJ,40.6668,-74.1158,"Bayonne, NJ",70497,New Jersey
Grand Forks,ND,47.9214,-97.0884,"Grand Forks, ND",70475,North Dakota
Noblesville,IN,40.0355,-86.0042,"Noblesville, IN",70442,Indiana
Guaynabo,PR,18.3832,-66.1134,"Guaynabo, PR",70167,Puerto Rico
El Paso de Robles,CA,35.6394,-120.656,"El Paso de Robles, CA",70128,California
North Richland Hills,TX,32.8604,-97.218,"North Richland Hills, TX",70114,Texas
Maple Grove,MN,45.1089,-93.4626,"Maple Grove, MN",70110,Minnesota
Passaic,NJ,40.8574,-74.1282,"Passaic, NJ",70048,New Jersey
Blaine,MN,45.1696,-93.2077,"Blaine, MN",70047,Minnesota
Lake Elsinore,CA,33.6847,-117.3344,"Lake Elsinore, CA",69993,California
Rogers,AR,36.317,-94.1531,"Rogers, AR",69961,Arkansas
Casas Adobes,AZ,32.3423,-111.0113,"Casas Adobes, AZ",69917,Arizona
Sherman,TX,33.6273,-96.6221,"Sherman, TX",69880,Texas
Walnut Creek,CA,37.9024,-122.0399,"Walnut Creek, CA",69809,California
Conway,AR,35.0753,-92.4692,"Conway, AR",69651,Arkansas
Eastvale,CA,33.9617,-117.5803,"Eastvale, CA",69594,California
Union City,CA,37.6032,-122.0181,"Union City, CA",69502,California
Michigan City,IN,41.7092,-86.869,"Michigan City, IN",69459,Indiana
Poinciana,FL,28.1217,-81.4821,"Poinciana, FL",69311,Florida
Tulare,CA,36.1995,-119.34,"Tulare, CA",69261,California
Gary,IN,41.5905,-87.3473,"Gary, IN",69136,Indiana
Gaithersburg,MD,39.1346,-77.2131,"Gaithersburg, MD",69016,Maryland
East Orange,NJ,40.7651,-74.2117,"East Orange, NJ",68879,New Jersey
Wesley Chapel,FL,28.2106,-82.3238,"Wesley Chapel, FL",68814,Florida
West Des Moines,IA,41.5521,-93.7806,"West Des Moines, IA",68744,Iowa
Dalton,GA,34.769,-84.972,"Dalton, GA",68614,Georgia
Dubuque,IA,42.5002,-90.707,"Dubuque, IA",68601,Iowa
Schenectady,NY,42.8025,-73.9275,"Schenectady, NY",68476,New York
Ankeny,IA,41.7288,-93.6031,"Ankeny, IA",68392,Iowa
Maricopa,AZ,33.0408,-112.0011,"Maricopa, AZ",68376,Arizona
Eagan,MN,44.817,-93.1638,"Eagan, MN",68262,Minnesota
Hanford,CA,36.3274,-119.6549,"Hanford, CA",68122,California
Bristol,TN,36.5572,-82.2154,"Bristol, TN",68083,Tennessee
Yorba Linda,CA,33.889,-117.7714,"Yorba Linda, CA",68035,California
Weston,FL,26.1006,-80.4054,"Weston, FL",68029,Florida
Watsonville,CA,36.9206,-121.7708,"Watsonville, CA",68020,California
Palo Alto,CA,37.3905,-122.1468,"Palo Alto, CA",67901,California
South Hill,WA,47.1198,-122.2853,"South Hill, WA",67835,Washington
Shawnee,KS,39.0158,-94.8076,"Shawnee, KS",67671,Kansas
San Marcos,TX,29.8734,-97.9356,"San Marcos, TX",67491,Texas
Great Falls,MT,47.5022,-111.2996,"Great Falls, MT",67300,Montana
Haverhill,MA,42.7838,-71.0871,"Haverhill, MA",67273,Massachusetts
Union City,NJ,40.7675,-74.0323,"Union City, NJ",67258,New Jersey
Palatine,IL,42.118,-88.043,"Palatine, IL",67223,Illinois
Longview,WA,46.1461,-122.963,"Longview, WA",67203,Washington
Corvallis,OR,44.5698,-123.2779,"Corvallis, OR",67187,Oregon
Rockville,MD,39.0834,-77.1553,"Rockville, MD",67142,Maryland
Skokie,IL,42.036,-87.74,"Skokie, IL",67076,Illinois
Mount Vernon,WA,48.4203,-122.3115,"Mount Vernon, WA",66896,Washington
Casper,WY,42.842,-106.3208,"Casper, WY",66876,Wyoming
Ames,IA,42.0256,-93.6217,"Ames, IA",66729,Iowa
Delray Beach,FL,26.455,-80.0905,"Delray Beach, FL",66646,Florida
Sammamish,WA,47.6017,-122.0416,"Sammamish, WA",66586,Washington
Lynwood,CA,33.924,-118.2016,"Lynwood, CA",66346,California
Dundalk,MD,39.2704,-76.4942,"Dundalk, MD",66321,Maryland
Bethesda,MD,38.9866,-77.1188,"Bethesda, MD",66316,Maryland
Morristown,TN,36.2043,-83.3001,"Morristown, TN",66220,Tennessee
Juana Díaz,PR,18.0532,-66.5044,"Juana Díaz, PR",66208,Puerto Rico
Kankakee,IL,41.102,-87.8643,"Kankakee, IL",66065,Illinois
Fajardo,PR,18.3331,-65.6589,"Fajardo, PR",66022,Puerto Rico
Alpharetta,GA,34.0704,-84.2738,"Alpharetta, GA",65884,Georgia
Novi,MI,42.4786,-83.4893,"Novi, MI",65870,Michigan
Kenner,LA,30.0109,-90.2549,"Kenner, LA",65785,Louisiana
Bay City,MI,43.5902,-83.8887,"Bay City, MI",65704,Michigan
Victoria,TX,28.8287,-96.9849,"Victoria, TX",65656,Texas
South San Francisco,CA,37.6538,-122.4196,"South San Francisco, CA",65596,California
Apex,NC,35.7237,-78.8743,"Apex, NC",65541,North Carolina
Parkersburg,WV,39.2623,-81.542,"Parkersburg, WV",65524,West Virginia
Malden,MA,42.4305,-71.0576,"Malden, MA",65463,Massachusetts
Castro Valley,CA,37.7088,-122.0626,"Castro Valley, CA",65444,California
Bozeman,MT,45.6833,-111.0558,"Bozeman, MT",65279,Montana
Brentwood,NY,40.7839,-73.2522,"Brentwood, NY",65042,New York
Waltham,MA,42.3889,-71.2423,"Waltham, MA",64711,Massachusetts
Pflugerville,TX,30.4515,-97.6018,"Pflugerville, TX",64528,Texas
North Little Rock,AR,34.7807,-92.2371,"North Little Rock, AR",64454,Arkansas
Brentwood,CA,37.9356,-121.719,"Brentwood, CA",64443,California
Laguna Niguel,CA,33.5275,-117.705,"Laguna Niguel, CA",64259,California
San Clemente,CA,33.4499,-117.6102,"San Clemente, CA",64232,California
Burnsville,MN,44.7648,-93.2793,"Burnsville, MN",64075,Minnesota
Spring,TX,30.0613,-95.383,"Spring, TX",63930,Texas
Port Charlotte,FL,26.9918,-82.114,"Port Charlotte, FL",63913,Florida
Eden Prairie,MN,44.8488,-93.4595,"Eden Prairie, MN",63623,Minnesota
Greenwood,IN,39.6019,-86.1073,"Greenwood, IN",63579,Indiana
Millcreek,UT,40.6892,-111.8292,"Millcreek, UT",63520,Utah
Bellevue,NE,41.1485,-95.939,"Bellevue, NE",63336,Nebraska
Coon Rapids,MN,45.1755,-93.3094,"Coon Rapids, MN",63296,Minnesota
Rowlett,TX,32.9155,-96.5489,"Rowlett, TX",63291,Texas
Hamilton,OH,39.3939,-84.5653,"Hamilton, OH",63149,Ohio
Lakewood,WA,47.1628,-122.5299,"Lakewood, WA",63142,Washington
Florence-Graham,CA,33.9682,-118.2447,"Florence-Graham, CA",63132,California
Commerce City,CO,39.8641,-104.843,"Commerce City, CO",63050,Colorado
Bossier City,LA,32.5224,-93.6668,"Bossier City, LA",62971,Louisiana
Taylor,MI,42.226,-83.2688,"Taylor, MI",62937,Michigan
La Habra,CA,33.9282,-117.9515,"La Habra, CA",62904,California
Port Orange,FL,29.1085,-81.0137,"Port Orange, FL",62849,Florida
Moore,OK,35.3293,-97.4757,"Moore, OK",62685,Oklahoma
Council Bluffs,IA,41.2369,-95.8516,"Council Bluffs, IA",62670,Iowa
Leander,TX,30.5728,-97.8618,"Leander, TX",62491,Texas
Dearborn Heights,MI,42.3164,-83.2769,"Dearborn Heights, MI",62474,Michigan
Reston,VA,38.9497,-77.3461,"Reston, VA",62339,Virginia
Montebello,CA,34.0155,-118.1108,"Montebello, CA",62056,California
Pontiac,MI,42.6493,-83.2878,"Pontiac, MI",61965,Michigan
Encinitas,CA,33.0492,-117.261,"Encinitas, CA",61942,California
Queen Creek,AZ,33.2454,-111.6173,"Queen Creek, AZ",61788,Arizona
Medford,MA,42.4234,-71.1087,"Medford, MA",61748,Massachusetts
Springfield,OR,44.0538,-122.9811,"Springfield, OR",61740,Oregon
Hendersonville,TN,36.3063,-86.5997,"Hendersonville, TN",61589,Tennessee
Palm Harbor,FL,28.0847,-82.7481,"Palm Harbor, FL",61589,Florida
Pico Rivera,CA,33.9901,-118.0888,"Pico Rivera, CA",61561,California
Marietta,GA,33.9533,-84.5422,"Marietta, GA",61387,Georgia
Wellington,FL,26.6461,-80.2699,"Wellington, FL",61373,Florida
Sanford,FL,28.7891,-81.2757,"Sanford, FL",61272,Florida
Woodland,CA,38.6712,-121.75,"Woodland, CA",61227,California
Caldwell,ID,43.6453,-116.6594,"Caldwell, ID",61212,Idaho
Huntersville,NC,35.406,-80.8716,"Huntersville, NC",61202,North Carolina
Bristol,CT,41.6812,-72.9407,"Bristol, CT",61052,Connecticut
Jupiter,FL,26.92,-80.1128,"Jupiter, FL",60926,Florida
San Rafael,CA,37.9905,-122.5221,"San Rafael, CA",60891,California
La Mesa,CA,32.7703,-117.0204,"La Mesa, CA",60888,California
Richland,WA,46.2824,-119.2939,"Richland, WA",60867,Washington
Revere,MA,42.4189,-71.004,"Revere, MA",60577,Massachusetts
Meriden,CT,41.5369,-72.7946,"Meriden, CT",60556,Connecticut
Monterey Park,CA,34.0497,-118.1326,"Monterey Park, CA",60386,California
Gardena,CA,33.8943,-118.3072,"Gardena, CA",60377,California
Euless,TX,32.8508,-97.08,"Euless, TX",60360,Texas
Des Plaines,IL,42.0345,-87.9008,"Des Plaines, IL",60087,Illinois
West Allis,WI,43.0068,-88.0296,"West Allis, WI",59907,Wisconsin
North Miami,FL,25.9008,-80.1686,"North Miami, FL",59854,Florida
St. Cloud,FL,28.2363,-81.2779,"St. Cloud, FL",59851,Florida
The Hammocks,FL,25.67,-80.4482,"The Hammocks, FL",59843,Florida
Cupertino,CA,37.3168,-122.0466,"Cupertino, CA",59763,California
Taylorsville,UT,40.6569,-111.9493,"Taylorsville, UT",59729,Utah
Petaluma,CA,38.2423,-122.6266,"Petaluma, CA",59682,California
Kokomo,IN,40.464,-86.1277,"Kokomo, IN",59534,Indiana
Santee,CA,32.8554,-116.9851,"Santee, CA",59497,California
Stonecrest,GA,33.6842,-84.1372,"Stonecrest, GA",59445,Georgia
Taunton,MA,41.9036,-71.0943,"Taunton, MA",59436,Massachusetts
White Plains,NY,41.022,-73.7547,"White Plains, NY",59421,New York
Palm Beach Gardens,FL,26.8466,-80.1679,"Palm Beach Gardens, FL",59088,Florida
Chapel Hill,NC,35.9271,-79.0391,"Chapel Hill, NC",58919,North Carolina
Hoboken,NJ,40.7452,-74.0281,"Hoboken, NJ",58754,New Jersey
Parker,CO,39.5084,-104.7753,"Parker, CO",58733,Colorado
Blue Springs,MO,39.0124,-94.2721,"Blue Springs, MO",58720,Missouri
Shoreline,WA,47.7564,-122.3426,"Shoreline, WA",58673,Washington
St. Clair Shores,MI,42.4925,-82.8961,"St. Clair Shores, MI",58656,Michigan
Horizon West,FL,28.4417,-81.6146,"Horizon West, FL",58595,Florida
Margate,FL,26.2466,-80.2119,"Margate, FL",58396,Florida
Orland Park,IL,41.6075,-87.8619,"Orland Park, IL",58345,Illinois
Carson City,NV,39.1511,-119.7476,"Carson City, NV",58249,Nevada
Midwest City,OK,35.463,-97.371,"Midwest City, OK",58124,Oklahoma
Royal Oak,MI,42.5084,-83.1539,"Royal Oak, MI",58053,Michigan
Bowie,MD,38.9549,-76.7406,"Bowie, MD",57922,Maryland
Kettering,OH,39.6956,-84.1494,"Kettering, OH",57707,Ohio
St. Peters,MO,38.7825,-90.6061,"St. Peters, MO",57692,Missouri
Oak Lawn,IL,41.7139,-87.7528,"Oak Lawn, IL",57665,Illinois
Towson,MD,39.3944,-76.619,"Towson, MD",57617,Maryland
Coconut Creek,FL,26.2803,-80.1842,"Coconut Creek, FL",57574,Florida
Decatur,AL,34.5731,-86.9905,"Decatur, AL",57525,Alabama
Lenexa,KS,38.9609,-94.8018,"Lenexa, KS",57497,Kansas
Bartlett,TN,35.2337,-89.8195,"Bartlett, TN",57481,Tennessee
South Whittier,CA,33.9336,-118.0312,"South Whittier, CA",57383,California
Lake Havasu City,AZ,34.5006,-114.3113,"Lake Havasu City, AZ",57294,Arizona
Bel Air South,MD,39.5022,-76.3113,"Bel Air South, MD",57109,Maryland
Fountainebleau,FL,25.7723,-80.346,"Fountainebleau, FL",57066,Florida
Wylie,TX,33.0362,-96.5161,"Wylie, TX",57063,Texas
Madison,AL,34.7114,-86.7626,"Madison, AL",56967,Alabama
Brookhaven,GA,33.8743,-84.3314,"Brookhaven, GA",56848,Georgia
Highland,CA,34.1113,-117.165,"Highland, CA",56789,California
Fountain Valley,CA,33.7105,-117.9514,"Fountain Valley, CA",56754,California
Berwyn,IL,41.8433,-87.7909,"Berwyn, IL",56556,Illinois
Severn,MD,39.1355,-76.6956,"Severn, MD",56438,Maryland
Albany,OR,44.6272,-123.0965,"Albany, OR",56348,Oregon
National City,CA,32.6654,-117.0983,"National City, CA",56345,California
Lacey,WA,47.0462,-122.7933,"Lacey, WA",56263,Washington
Mount Prospect,IL,42.0641,-87.9375,"Mount Prospect, IL",56191,Illinois
Arcadia,CA,34.1342,-118.0373,"Arcadia, CA",56181,California
DeSoto,TX,32.5992,-96.8633,"DeSoto, TX",55882,Texas
Smyrna,GA,33.8633,-84.5168,"Smyrna, GA",55863,Georgia
Bradenton,FL,27.4901,-82.5757,"Bradenton, FL",55795,Florida
New Brunswick,NJ,40.487,-74.445,"New Brunswick, NJ",55718,New Jersey
Apple Valley,MN,44.7457,-93.2004,"Apple Valley, MN",55594,Minnesota
Tinley Park,IL,41.567,-87.8049,"Tinley Park, IL",55571,Illinois
Sarasota,FL,27.3387,-82.5432,"Sarasota, FL",55508,Florida
Hacienda Heights,CA,33.997,-117.9727,"Hacienda Heights, CA",55461,California
Chicopee,MA,42.1764,-72.5719,"Chicopee, MA",55441,Massachusetts
West Haven,CT,41.2739,-72.9672,"West Haven, CT",55336,Connecticut
Herriman,UT,40.4899,-112.017,"Herriman, UT",55301,Utah
Perth Amboy,NJ,40.5202,-74.2724,"Perth Amboy, NJ",55226,New Jersey
Casa Grande,AZ,32.9069,-111.7624,"Casa Grande, AZ",55186,Arizona
Tigard,OR,45.4237,-122.7845,"Tigard, OR",55161,Oregon
Apopka,FL,28.7015,-81.5316,"Apopka, FL",55056,Florida
Southaven,MS,34.9514,-89.9786,"Southaven, MS",54908,Mississippi
Huntington Park,CA,33.98,-118.2167,"Huntington Park, CA",54547,California
Diamond Bar,CA,33.9992,-117.8161,"Diamond Bar, CA",54534,California
Bentonville,AR,36.3547,-94.2305,"Bentonville, AR",54513,Arkansas
Yucaipa,CA,34.0336,-117.0429,"Yucaipa, CA",54428,California
Plainfield,NJ,40.6154,-74.4157,"Plainfield, NJ",54358,New Jersey
Manhattan,KS,39.1886,-96.6048,"Manhattan, KS",54287,Kansas
Aspen Hill,MD,39.0927,-77.0826,"Aspen Hill, MD",54262,Maryland
Rocky Mount,NC,35.9685,-77.804,"Rocky Mount, NC",54260,North Carolina
Peabody,MA,42.5335,-70.9725,"Peabody, MA",54204,Massachusetts
West Sacramento,CA,38.5557,-121.5505,"West Sacramento, CA",54163,California
San Jacinto,CA,33.797,-116.9916,"San Jacinto, CA",54077,California
Kentwood,MI,42.8852,-85.5926,"Kentwood, MI",54042,Michigan
Colton,CA,34.0538,-117.3255,"Colton, CA",53959,California
Oak Park,IL,41.8872,-87.7899,"Oak Park, IL",53834,Illinois
Westchester,FL,25.7471,-80.3523,"Westchester, FL",53765,Florida
Smyrna,TN,35.9687,-86.5264,"Smyrna, TN",53760,Tennessee
Wheaton,IL,41.8561,-88.1085,"Wheaton, IL",53673,Illinois
Beaumont,CA,33.9076,-116.9766,"Beaumont, CA",53544,California
Aloha,OR,45.492,-122.8725,"Aloha, OR",53532,Oregon
Minnetonka,MN,44.9322,-93.4598,"Minnetonka, MN",53529,Minnesota
Pinellas Park,FL,27.8589,-82.7078,"Pinellas Park, FL",53352,Florida
Kannapolis,NC,35.4764,-80.6408,"Kannapolis, NC",53314,North Carolina
Paramount,CA,33.8977,-118.1651,"Paramount, CA",53255,California
Texas City,TX,29.4154,-94.9682,"Texas City, TX",53084,Texas
Novato,CA,38.092,-122.5575,"Novato, CA",53055,California
Edina,MN,44.8914,-93.3602,"Edina, MN",53037,Minnesota
Normal,IL,40.5217,-88.9884,"Normal, IL",52920,Illinois
Tamiami,FL,25.7556,-80.4016,"Tamiami, FL",52851,Florida
Grand Island,NE,40.9218,-98.3586,"Grand Island, NE",52822,Nebraska
Methuen Town,MA,42.734,-71.1889,"Methuen Town, MA",52812,Massachusetts
Elyria,OH,41.376,-82.106,"Elyria, OH",52780,Ohio
Wheaton,MD,39.0492,-77.0573,"Wheaton, MD",52775,Maryland
Kendale Lakes,FL,25.7081,-80.4078,"Kendale Lakes, FL",52661,Florida
Marana,AZ,32.4355,-111.1558,"Marana, AZ",52542,Arizona
West New York,NJ,40.7857,-74.0094,"West New York, NJ",52438,New Jersey
Twin Falls,ID,42.5645,-114.4613,"Twin Falls, ID",52315,Idaho
Florissant,MO,38.7996,-90.3269,"Florissant, MO",52167,Missouri
Glendora,CA,34.1449,-117.8467,"Glendora, CA",52095,California
Cathedral City,CA,33.8362,-116.4642,"Cathedral City, CA",51964,California
Aliso Viejo,CA,33.5792,-117.7289,"Aliso Viejo, CA",51896,California
Placentia,CA,33.8807,-117.8553,"Placentia, CA",51797,California
Hoffman Estates,IL,42.064,-88.1468,"Hoffman Estates, IL",51744,Illinois
Burien,WA,47.4762,-122.3394,"Burien, WA",51505,Washington
Dunwoody,GA,33.9418,-84.3122,"Dunwoody, GA",51458,Georgia
Palm Desert,CA,33.7378,-116.3695,"Palm Desert, CA",51290,California
Troy,NY,42.7354,-73.6751,"Troy, NY",51268,New York
Collierville,TN,35.047,-89.6987,"Collierville, TN",51170,Tennessee
Levittown,PA,40.1533,-74.8531,"Levittown, PA",51152,Pennsylvania
Rosemead,CA,34.0689,-118.0823,"Rosemead, CA",51043,California
Country Club,FL,25.9407,-80.3102,"Country Club, FL",50975,Florida
Enid,OK,36.4063,-97.87,"Enid, OK",50961,Oklahoma
Cuyahoga Falls,OH,41.1641,-81.5207,"Cuyahoga Falls, OH",50916,Ohio
Mishawaka,IN,41.6742,-86.1666,"Mishawaka, IN",50899,Indiana
Columbus,IN,39.2093,-85.9183,"Columbus, IN",50896,Indiana
Summerville,SC,33.0016,-80.1799,"Summerville, SC",50839,South Carolina
Levittown,NY,40.7241,-73.5125,"Levittown, NY",50804,New York
Grapevine,TX,32.9343,-97.0742,"Grapevine, TX",50763,Texas
Covina,CA,34.0903,-117.8818,"Covina, CA",50717,California
Milford city ,CT,41.2255,-73.0625,"Milford city , CT",50664,Connecticut
Draper,UT,40.4957,-111.8605,"Draper, UT",50635,Utah
Lakewood,OH,41.4822,-81.8008,"Lakewood, OH",50605,Ohio
Catalina Foothills,AZ,32.3046,-110.8838,"Catalina Foothills, AZ",50573,Arizona
Delano,CA,35.7662,-119.2635,"Delano, CA",50498,California
Lincoln,CA,38.8774,-121.2937,"Lincoln, CA",50131,California
Murray,UT,40.6498,-111.8874,"Murray, UT",50041,Utah
Mooresville,NC,35.5847,-80.8266,"Mooresville, NC",50025,North Carolina
Downers Grove,IL,41.7949,-88.0172,"Downers Grove, IL",49996,Illinois
Florin,CA,38.4832,-121.4043,"Florin, CA",49992,California
Cypress,CA,33.8171,-118.0386,"Cypress, CA",49955,California
Jeffersonville,IN,38.3376,-85.7026,"Jeffersonville, IN",49771,Indiana
North Bethesda,MD,39.0393,-77.1191,"North Bethesda, MD",49763,Maryland
Azusa,CA,34.1386,-117.9124,"Azusa, CA",49704,California
Coral Gables,FL,25.7037,-80.2715,"Coral Gables, FL",49696,Florida
Chesterfield,MO,38.6589,-90.5803,"Chesterfield, MO",49645,Missouri
McLean,VA,38.9436,-77.1943,"McLean, VA",49587,Virginia
St. Louis Park,MN,44.9488,-93.3649,"St. Louis Park, MN",49500,Minnesota
East Honolulu,HI,21.2975,-157.7211,"East Honolulu, HI",49491,Hawaii
Bedford,TX,32.8464,-97.135,"Bedford, TX",49455,Texas
Euclid,OH,41.5903,-81.5188,"Euclid, OH",49279,Ohio
Lawrence,IN,39.8674,-85.9904,"Lawrence, IN",49218,Indiana
Ceres,CA,37.5952,-120.962,"Ceres, CA",49183,California
University,FL,28.0771,-82.4335,"University, FL",49148,Florida
Biloxi,MS,30.4426,-88.9514,"Biloxi, MS",49141,Mississippi
El Dorado Hills,CA,38.675,-121.049,"El Dorado Hills, CA",49082,California
Cerritos,CA,33.8678,-118.0686,"Cerritos, CA",49016,California
Burleson,TX,32.517,-97.3344,"Burleson, TX",48970,Texas
Portage,MI,42.2,-85.5906,"Portage, MI",48936,Michigan
Dublin,OH,40.1112,-83.1454,"Dublin, OH",48893,Ohio
Poway,CA,32.9871,-117.0201,"Poway, CA",48737,California
Cedar Hill,TX,32.581,-96.9591,"Cedar Hill, TX",48733,Texas
Everett,MA,42.4064,-71.0545,"Everett, MA",48685,Massachusetts
Stillwater,OK,36.1317,-97.0742,"Stillwater, OK",48644,Oklahoma
Titusville,FL,28.5727,-80.8193,"Titusville, FL",48595,Florida
Niagara Falls,NY,43.0921,-79.0147,"Niagara Falls, NY",48502,New York
Kyle,TX,29.9932,-97.8852,"Kyle, TX",48484,Texas
Leesburg,VA,39.1057,-77.5544,"Leesburg, VA",48465,Virginia
Westfield,IN,40.0341,-86.1529,"Westfield, IN",48262,Indiana
Little Elm,TX,33.1858,-96.9295,"Little Elm, TX",48241,Texas
Middletown,CT,41.5476,-72.6549,"Middletown, CT",48152,Connecticut
North Highlands,CA,38.6713,-121.3721,"North Highlands, CA",48083,California
Tuckahoe,VA,37.5878,-77.5858,"Tuckahoe, VA",48049,Virginia
Wake Forest,NC,35.9632,-78.514,"Wake Forest, NC",48047,North Carolina
Minot,ND,48.2375,-101.278,"Minot, ND",48038,North Dakota
Roswell,NM,33.373,-104.5294,"Roswell, NM",48035,New Mexico
Wauwatosa,WI,43.0616,-88.0347,"Wauwatosa, WI",47919,Wisconsin
Bothell,WA,47.7735,-122.2044,"Bothell, WA",47917,Washington
Glenview,IL,42.0825,-87.8214,"Glenview, IL",47896,Illinois
Rockwall,TX,32.9169,-96.4374,"Rockwall, TX",47859,Texas
Wilson,NC,35.7311,-77.9284,"Wilson, NC",47767,North Carolina
Rancho Santa Margarita,CA,33.6318,-117.5988,"Rancho Santa Margarita, CA",47702,California
La Mirada,CA,33.9025,-118.0093,"La Mirada, CA",47644,California
Antelope,CA,38.7153,-121.361,"Antelope, CA",47629,California
Hilo,HI,19.6883,-155.0863,"Hilo, HI",47627,Hawaii
San Luis Obispo,CA,35.2669,-120.669,"San Luis Obispo, CA",47529,California
Roseville,MI,42.5074,-82.9369,"Roseville, MI",47476,Michigan
Newark,CA,37.5201,-122.0307,"Newark, CA",47470,California
Mentor,OH,41.6893,-81.3362,"Mentor, OH",47302,Ohio
Ocoee,FL,28.5796,-81.5332,"Ocoee, FL",47290,Florida
Rowland Heights,CA,33.9716,-117.8912,"Rowland Heights, CA",47209,California
Fort Pierce,FL,27.4255,-80.3431,"Fort Pierce, FL",47153,Florida
Brea,CA,33.9254,-117.8655,"Brea, CA",47099,California
Oro Valley,AZ,32.4208,-110.9767,"Oro Valley, AZ",47053,Arizona
East Providence,RI,41.8065,-71.3565,"East Providence, RI",47012,Rhode Island
Pearl City,HI,21.4031,-157.9566,"Pearl City, HI",46812,Hawaii
Salina,KS,38.8136,-97.6143,"Salina, KS",46734,Kansas
Beavercreek,OH,39.731,-84.0624,"Beavercreek, OH",46576,Ohio
Winter Garden,FL,28.5421,-81.5967,"Winter Garden, FL",46518,Florida
Potomac,MD,39.0141,-77.1943,"Potomac, MD",46499,Maryland
Farmington,NM,36.7555,-108.1823,"Farmington, NM",46457,New Mexico
Attleboro,MA,41.9311,-71.295,"Attleboro, MA",46384,Massachusetts
Huntsville,TX,30.7009,-95.5567,"Huntsville, TX",46202,Texas
Strongsville,OH,41.3128,-81.8313,"Strongsville, OH",46165,Ohio
Eagle Mountain,UT,40.3137,-112.0114,"Eagle Mountain, UT",46109,Utah
Prescott,AZ,34.5849,-112.4473,"Prescott, AZ",46054,Arizona
Olive Branch,MS,34.961,-89.8469,"Olive Branch, MS",45938,Mississippi
Goose Creek,SC,32.9927,-80.0055,"Goose Creek, SC",45858,South Carolina
Sicklerville,NJ,39.7452,-74.9934,"Sicklerville, NJ",45853,New Jersey
Altamonte Springs,FL,28.6615,-81.3953,"Altamonte Springs, FL",45772,Florida
Haltom City,TX,32.8176,-97.2707,"Haltom City, TX",45771,Texas
Hackensack,NJ,40.8891,-74.0462,"Hackensack, NJ",45758,New Jersey
Elmhurst,IL,41.8973,-87.9432,"Elmhurst, IL",45648,Illinois
Urbandale,IA,41.639,-93.7812,"Urbandale, IA",45591,Iowa
Los Banos,CA,37.063,-120.8406,"Los Banos, CA",45560,California
Littleton,CO,39.5915,-105.0188,"Littleton, CO",45531,Colorado
Ashburn,VA,39.0277,-77.4714,"Ashburn, VA",45479,Virginia
East Lansing,MI,42.748,-84.4836,"East Lansing, MI",45403,Michigan
Bountiful,UT,40.8721,-111.8647,"Bountiful, UT",45353,Utah
Keller,TX,32.9335,-97.2256,"Keller, TX",45320,Texas
Morgan Hill,CA,37.1325,-121.6419,"Morgan Hill, CA",45291,California
Sierra Vista,AZ,31.563,-110.3153,"Sierra Vista, AZ",45212,Arizona
Sayreville,NJ,40.4656,-74.3237,"Sayreville, NJ",45136,New Jersey
Odenton,MD,39.0661,-76.6938,"Odenton, MD",45026,Maryland
Cleveland Heights,OH,41.5113,-81.5636,"Cleveland Heights, OH",45002,Ohio
Gallatin,TN,36.3782,-86.4698,"Gallatin, TN",44947,Tennessee
Plainfield,IL,41.6207,-88.2253,"Plainfield, IL",44941,Illinois
Palm Springs,CA,33.8017,-116.5382,"Palm Springs, CA",44935,California
Riverton,UT,40.5176,-111.9636,"Riverton, UT",44864,Utah
West Lafayette,IN,40.4432,-86.9238,"West Lafayette, IN",44861,Indiana
Brentwood,TN,35.9918,-86.7758,"Brentwood, TN",44830,Tennessee
Cutler Bay,FL,25.5765,-80.3356,"Cutler Bay, FL",44738,Florida
Lake Ridge,VA,38.6847,-77.3066,"Lake Ridge, VA",44720,Virginia
Whitney,NV,36.1008,-115.0379,"Whitney, NV",44720,Nevada
Pahrump,NV,36.2235,-115.9974,"Pahrump, NV",44711,Nevada
North Lauderdale,FL,26.2113,-80.2209,"North Lauderdale, FL",44635,Florida
Fairfield,OH,39.3301,-84.5409,"Fairfield, OH",44602,Ohio
Wentzville,MO,38.8153,-90.8669,"Wentzville, MO",44584,Missouri
Salem,MA,42.5129,-70.9021,"Salem, MA",44541,Massachusetts
Fond du Lac,WI,43.7718,-88.4397,"Fond du Lac, WI",44527,Wisconsin
Rohnert Park,CA,38.3479,-122.6965,"Rohnert Park, CA",44461,California
Mankato,MN,44.1715,-93.9772,"Mankato, MN",44444,Minnesota
Moorhead,MN,46.8673,-96.7461,"Moorhead, MN",44443,Minnesota
The Colony,TX,33.0925,-96.8976,"The Colony, TX",44323,Texas
Burke,VA,38.7773,-77.2633,"Burke, VA",44228,Virginia
Freeport,NY,40.6515,-73.585,"Freeport, NY",44210,New York
El Centro,CA,32.7865,-115.5595,"El Centro, CA",44184,California
Shakopee,MN,44.7745,-93.4772,"Shakopee, MN",44135,Minnesota
Wilkes-Barre,PA,41.2469,-75.876,"Wilkes-Barre, PA",44123,Pennsylvania
Lompoc,CA,34.6618,-120.4714,"Lompoc, CA",44086,California
Hicksville,NY,40.7637,-73.5245,"Hicksville, NY",44084,New York
Oakland Park,FL,26.178,-80.1528,"Oakland Park, FL",44056,Florida
Lombard,IL,41.8741,-88.0157,"Lombard, IL",44055,Illinois
Concord,NH,43.2305,-71.5595,"Concord, NH",44049,New Hampshire
Pittsfield,MA,42.4517,-73.2605,"Pittsfield, MA",43730,Massachusetts
Greenacres,FL,26.627,-80.1371,"Greenacres, FL",43651,Florida
Oakley,CA,37.9929,-121.6952,"Oakley, CA",43525,California
Linden,NJ,40.6251,-74.2383,"Linden, NJ",43478,New Jersey
Campbell,CA,37.2802,-121.9539,"Campbell, CA",43464,California
Danville,CA,37.8121,-121.9698,"Danville, CA",43449,California
North Miami Beach,FL,25.9302,-80.1659,"North Miami Beach, FL",43269,Florida
Clermont,FL,28.5325,-81.7208,"Clermont, FL",43266,Florida
San Bruno,CA,37.6256,-122.4313,"San Bruno, CA",43218,California
Channelview,TX,29.7914,-95.1144,"Channelview, TX",43204,Texas
Trujillo Alto,PR,18.3599,-66.0096,"Trujillo Alto, PR",43192,Puerto Rico
Ormond Beach,FL,29.2985,-81.1014,"Ormond Beach, FL",43127,Florida
Huber Heights,OH,39.8595,-84.113,"Huber Heights, OH",43095,Ohio
Woonsocket,RI,42.001,-71.4993,"Woonsocket, RI",43029,Rhode Island
Buffalo Grove,IL,42.1675,-87.9615,"Buffalo Grove, IL",42934,Illinois
West Babylon,NY,40.7129,-73.3585,"West Babylon, NY",42783,New York
Catonsville,MD,39.2646,-76.7424,"Catonsville, MD",42767,Maryland
Altadena,CA,34.1927,-118.1346,"Altadena, CA",42719,California
Edmonds,WA,47.8115,-122.3533,"Edmonds, WA",42705,Washington
Linton Hall,VA,38.7551,-77.575,"Linton Hall, VA",42702,Virginia
Spanish Fork,UT,40.1101,-111.6405,"Spanish Fork, UT",42694,Utah
Newnan,GA,33.3767,-84.7761,"Newnan, GA",42689,Georgia
Vineyard,CA,38.474,-121.324,"Vineyard, CA",42657,California
Jefferson City,MO,38.5676,-92.1759,"Jefferson City, MO",42644,Missouri
Manassas,VA,38.7479,-77.4838,"Manassas, VA",42620,Virginia
Woodbridge,VA,38.6409,-77.258,"Woodbridge, VA",42619,Virginia
Puyallup,WA,47.1793,-122.2902,"Puyallup, WA",42610,Washington
Schertz,TX,29.565,-98.2535,"Schertz, TX",42545,Texas
Coppell,TX,32.9639,-96.9903,"Coppell, TX",42513,Texas
Danville,VA,36.5831,-79.4088,"Danville, VA",42507,Virginia
North Fort Myers,FL,26.7244,-81.8485,"North Fort Myers, FL",42492,Florida
Columbia,TN,35.6238,-87.0484,"Columbia, TN",42474,Tennessee
Moline,IL,41.4821,-90.492,"Moline, IL",42452,Illinois
Beverly,MA,42.5681,-70.8627,"Beverly, MA",42414,Massachusetts
Midland,MI,43.6241,-84.2319,"Midland, MI",42404,Michigan
Annandale,VA,38.8324,-77.196,"Annandale, VA",42330,Virginia
Coachella,CA,33.6905,-116.143,"Coachella, CA",42279,California
Woodlawn,MD,39.3054,-76.7489,"Woodlawn, MD",42239,Maryland
Meadow Woods,FL,28.3698,-81.3467,"Meadow Woods, FL",42207,Florida
Coram,NY,40.8812,-73.0059,"Coram, NY",42169,New York
Belleville,IL,38.5164,-89.99,"Belleville, IL",42155,Illinois
Peachtree Corners,GA,33.967,-84.232,"Peachtree Corners, GA",42147,Georgia
Hollister,CA,36.8555,-121.3986,"Hollister, CA",42093,California
Holly Springs,NC,35.6526,-78.8399,"Holly Springs, NC",42023,North Carolina
Delaware,OH,40.2851,-83.0741,"Delaware, OH",41926,Ohio
Rancho Palos Verdes,CA,33.7554,-118.3634,"Rancho Palos Verdes, CA",41805,California
Waxahachie,TX,32.4035,-96.8446,"Waxahachie, TX",41801,Texas
Mableton,GA,33.8133,-84.5655,"Mableton, GA",41647,Georgia
Fitchburg,MA,42.5912,-71.8156,"Fitchburg, MA",41621,Massachusetts
Bullhead City,AZ,35.1205,-114.5461,"Bullhead City, AZ",41593,Arizona
Grove City,OH,39.8654,-83.069,"Grove City, OH",41423,Ohio
Maplewood,MN,44.9842,-93.0247,"Maplewood, MN",41405,Minnesota
Marion,IA,42.0451,-91.585,"Marion, IA",41401,Iowa
Marlborough,MA,42.3494,-71.5468,"Marlborough, MA",41391,Massachusetts
Brookfield,WI,43.064,-88.1231,"Brookfield, WI",41342,Wisconsin
French Valley,CA,33.5999,-117.1069,"French Valley, CA",41239,California
Shelton,CT,41.306,-73.1383,"Shelton, CT",41206,Connecticut
Pine Bluff,AR,34.2116,-92.0173,"Pine Bluff, AR",41172,Arkansas
Kearny,NJ,40.7528,-74.1202,"Kearny, NJ",41157,New Jersey
Hallandale Beach,FL,25.9854,-80.1423,"Hallandale Beach, FL",41102,Florida
Germantown,TN,35.0829,-89.7824,"Germantown, TN",41094,Tennessee
Milton,GA,34.1353,-84.3139,"Milton, GA",41029,Georgia
Woburn,MA,42.4869,-71.1543,"Woburn, MA",40992,Massachusetts
Lancaster,TX,32.5922,-96.7739,"Lancaster, TX",40958,Texas
Reynoldsburg,OH,39.9588,-82.7943,"Reynoldsburg, OH",40926,Ohio
Covington,KY,39.0334,-84.5166,"Covington, KY",40923,Kentucky
Friendswood,TX,29.511,-95.1981,"Friendswood, TX",40888,Texas
Weslaco,TX,26.1599,-97.9877,"Weslaco, TX",40858,Texas
Land O' Lakes,FL,28.2075,-82.4476,"Land O' Lakes, FL",40843,Florida
Essex,MD,39.3021,-76.4449,"Essex, MD",40842,Maryland
Bartlett,IL,41.9804,-88.2071,"Bartlett, IL",40829,Illinois
Westfield,MA,42.1382,-72.7561,"Westfield, MA",40794,Massachusetts
Annapolis,MD,38.9706,-76.5047,"Annapolis, MD",40719,Maryland
DeKalb,IL,41.9314,-88.7481,"DeKalb, IL",40697,Illinois
Cedar Falls,IA,42.5195,-92.4536,"Cedar Falls, IA",40686,Iowa
Lancaster,OH,39.7248,-82.6049,"Lancaster, OH",40616,Ohio
Brighton,CO,39.9716,-104.7963,"Brighton, CO",40569,Colorado
Crystal Lake,IL,42.2333,-88.3351,"Crystal Lake, IL",40463,Illinois
Lake Oswego,OR,45.4129,-122.7004,"Lake Oswego, OR",40457,Oregon
Severna Park,MD,39.087,-76.5687,"Severna Park, MD",40452,Maryland
Findlay,OH,41.0469,-83.6379,"Findlay, OH",40408,Ohio
Saratoga Springs,UT,40.345,-111.9154,"Saratoga Springs, UT",40391,Utah
New Berlin,WI,42.9726,-88.1291,"New Berlin, WI",40387,Wisconsin
Culver City,CA,34.0058,-118.3968,"Culver City, CA",40357,California
Indian Trail,NC,35.0699,-80.6452,"Indian Trail, NC",40325,North Carolina
Duncanville,TX,32.646,-96.9127,"Duncanville, TX",40288,Texas
Valley Stream,NY,40.6647,-73.7043,"Valley Stream, NY",40288,New York
Clinton,MD,38.7499,-76.9063,"Clinton, MD",40224,Maryland
The Acreage,FL,26.774,-80.2779,"The Acreage, FL",40160,Florida
Romeoville,IL,41.6318,-88.0997,"Romeoville, IL",40132,Illinois
Hurst,TX,32.8353,-97.1809,"Hurst, TX",40053,Texas
Post Falls,ID,47.7213,-116.9384,"Post Falls, ID",40002,Idaho
Hutchinson,KS,38.0671,-97.9081,"Hutchinson, KS",39995,Kansas
Chelsea,MA,42.3959,-71.0325,"Chelsea, MA",39890,Massachusetts
Waipahu,HI,21.3859,-158.0101,"Waipahu, HI",39873,Hawaii
Lynnwood,WA,47.8284,-122.3033,"Lynnwood, WA",39867,Washington
Lincoln Park,MI,42.2432,-83.1811,"Lincoln Park, MI",39807,Michigan
Fort Lee,NJ,40.8509,-73.9713,"Fort Lee, NJ",39799,New Jersey
Cape Girardeau,MO,37.3109,-89.5597,"Cape Girardeau, MO",39795,Missouri
Hobbs,NM,32.7281,-103.16,"Hobbs, NM",39782,New Mexico
Carol Stream,IL,41.9181,-88.1307,"Carol Stream, IL",39656,Illinois
Plant City,FL,28.014,-82.1201,"Plant City, FL",39655,Florida
Aventura,FL,25.9566,-80.1371,"Aventura, FL",39621,Florida
Lebanon,TN,36.204,-86.3481,"Lebanon, TN",39562,Tennessee
Streamwood,IL,42.0209,-88.1779,"Streamwood, IL",39556,Illinois
Oviedo,FL,28.658,-81.1872,"Oviedo, FL",39552,Florida
Mount Juliet,TN,36.199,-86.5115,"Mount Juliet, TN",39525,Tennessee
Quincy,IL,39.9336,-91.3799,"Quincy, IL",39441,Illinois
Issaquah,WA,47.5439,-122.0471,"Issaquah, WA",39400,Washington
Parkland,WA,47.1417,-122.4376,"Parkland, WA",39398,Washington
Park Ridge,IL,42.0125,-87.8436,"Park Ridge, IL",39368,Illinois
Cottage Grove,MN,44.8161,-92.9274,"Cottage Grove, MN",39274,Minnesota
Bell Gardens,CA,33.9663,-118.155,"Bell Gardens, CA",39263,California
San Gabriel,CA,34.0949,-118.099,"San Gabriel, CA",39211,California
Warren,OH,41.239,-80.8174,"Warren, OH",39204,Ohio
Security-Widefield,CO,38.7489,-104.7142,"Security-Widefield, CO",39150,Colorado
Grants Pass,OR,42.4333,-123.3317,"Grants Pass, OR",39131,Oregon
Keizer,OR,45.0028,-123.0243,"Keizer, OR",39122,Oregon
Roy,UT,41.1714,-112.0485,"Roy, UT",39064,Utah
Bettendorf,IA,41.5657,-90.4765,"Bettendorf, IA",38997,Iowa
Westerville,OH,40.1241,-82.921,"Westerville, OH",38911,Ohio
Royal Palm Beach,FL,26.7038,-80.2241,"Royal Palm Beach, FL",38874,Florida
Apache Junction,AZ,33.3985,-111.535,"Apache Junction, AZ",38855,Arizona
Navarre,FL,30.4174,-86.8907,"Navarre, FL",38829,Florida
Wheeling,IL,42.1308,-87.924,"Wheeling, IL",38823,Illinois
Lake Stevens,WA,48.0024,-122.0953,"Lake Stevens, WA",38816,Washington
Rexburg,ID,43.8226,-111.7919,"Rexburg, ID",38803,Idaho
Urbana,IL,40.1107,-88.1973,"Urbana, IL",38741,Illinois
Rosenberg,TX,29.5456,-95.8223,"Rosenberg, TX",38722,Texas
West Fargo,ND,46.8573,-96.9057,"West Fargo, ND",38653,North Dakota
La Presa,CA,32.711,-117.0027,"La Presa, CA",38618,California
Menomonee Falls,WI,43.1487,-88.1227,"Menomonee Falls, WI",38610,Wisconsin
Vestavia Hills,AL,33.4518,-86.7437,"Vestavia Hills, AL",38600,Alabama
Calexico,CA,32.6849,-115.4944,"Calexico, CA",38599,California
Valrico,FL,27.9193,-82.2293,"Valrico, FL",38594,Florida
La Vergne,TN,36.02,-86.5586,"La Vergne, TN",38553,Tennessee
Atlantic City,NJ,39.3797,-74.4527,"Atlantic City, NJ",38487,New Jersey
Clovis,NM,34.4376,-103.1923,"Clovis, NM",38453,New Mexico
Peachtree City,GA,33.3942,-84.571,"Peachtree City, GA",38414,Georgia
Phenix City,AL,32.4585,-85.0253,"Phenix City, AL",38413,Alabama
DeLand,FL,29.0225,-81.2875,"DeLand, FL",38392,Florida
Mechanicsville,VA,37.6263,-77.3561,"Mechanicsville, VA",38328,Virginia
Stanton,CA,33.8003,-117.9935,"Stanton, CA",38271,California
Holyoke,MA,42.2125,-72.6411,"Holyoke, MA",38210,Massachusetts
Winter Springs,FL,28.6889,-81.2703,"Winter Springs, FL",38205,Florida
Owasso,OK,36.2878,-95.8311,"Owasso, OK",38134,Oklahoma
Prattville,AL,32.4597,-86.4573,"Prattville, AL",38124,Alabama
East Point,GA,33.6696,-84.4701,"East Point, GA",38113,Georgia
Pacifica,CA,37.6113,-122.4782,"Pacifica, CA",38048,California
Hot Springs,AR,34.4892,-93.0501,"Hot Springs, AR",38025,Arkansas
Adelanto,CA,34.5814,-117.4397,"Adelanto, CA",37960,California
Princeton,FL,25.5396,-80.3971,"Princeton, FL",37954,Florida
Northglenn,CO,39.9108,-104.9783,"Northglenn, CO",37948,Colorado
Tupelo,MS,34.2692,-88.7318,"Tupelo, MS",37939,Mississippi
La Quinta,CA,33.6536,-116.2785,"La Quinta, CA",37933,California
Elmont,NY,40.7033,-73.7078,"Elmont, NY",37866,New York
Mission Bend,TX,29.6948,-95.6658,"Mission Bend, TX",37853,Texas
Montclair,CA,34.0715,-117.6981,"Montclair, CA",37842,California
La Puente,CA,34.0323,-117.9533,"La Puente, CA",37835,California
Carpentersville,IL,42.1227,-88.2896,"Carpentersville, IL",37834,Illinois
Sun City,AZ,33.6165,-112.2819,"Sun City, AZ",37748,Arizona
Portage,IN,41.5856,-87.1797,"Portage, IN",37737,Indiana
Hilton Head Island,SC,32.1896,-80.7499,"Hilton Head Island, SC",37708,South Carolina
Riviera Beach,FL,26.7813,-80.0741,"Riviera Beach, FL",37668,Florida
Monrovia,CA,34.165,-117.9921,"Monrovia, CA",37656,California
Foothill Farms,CA,38.6867,-121.3475,"Foothill Farms, CA",37635,California
Rome,GA,34.2662,-85.1863,"Rome, GA",37621,Georgia
South Valley,NM,35.0093,-106.6819,"South Valley, NM",37601,New Mexico
New Albany,IN,38.309,-85.8234,"New Albany, IN",37598,Indiana
Lewiston,ME,44.0915,-70.1681,"Lewiston, ME",37577,Maine
Winchester,NV,36.1365,-115.137,"Winchester, NV",37531,Nevada
Greenfield,WI,42.9619,-88.0052,"Greenfield, WI",37521,Wisconsin
Georgetown,KY,38.2247,-84.5487,"Georgetown, KY",37510,Kentucky
Evans,GA,33.5619,-82.1351,"Evans, GA",37456,Georgia
Pleasant Grove,UT,40.3716,-111.7412,"Pleasant Grove, UT",37453,Utah
Oregon City,OR,45.3418,-122.5924,"Oregon City, OR",37418,Oregon
Bartlesville,OK,36.7365,-95.9456,"Bartlesville, OK",37314,Oklahoma
Rock Island,IL,41.4699,-90.5827,"Rock Island, IL",37264,Illinois
Hanover Park,IL,41.9818,-88.1446,"Hanover Park, IL",37222,Illinois
Leavenworth,KS,39.3239,-94.924,"Leavenworth, KS",37193,Kansas
Martinez,CA,37.9985,-122.1161,"Martinez, CA",37093,California
Greer,SC,34.933,-82.2313,"Greer, SC",37010,South Carolina
Tucker,GA,33.8436,-84.2024,"Tucker, GA",36994,Georgia
Richmond West,FL,25.6105,-80.4297,"Richmond West, FL",36964,Florida
Muskogee,OK,35.7432,-95.3567,"Muskogee, OK",36933,Oklahoma
Claremont,CA,34.1259,-117.7153,"Claremont, CA",36891,California
Kearns,UT,40.6519,-112.0095,"Kearns, UT",36862,Utah
East Meadow,NY,40.7197,-73.5604,"East Meadow, NY",36856,New York
Wildomar,CA,33.6173,-117.2582,"Wildomar, CA",36822,California
Richfield,MN,44.8763,-93.2829,"Richfield, MN",36809,Minnesota
Estero,FL,26.4276,-81.7951,"Estero, FL",36685,Florida
Beloit,WI,42.523,-89.0184,"Beloit, WI",36642,Wisconsin
Oakton,VA,38.8887,-77.3016,"Oakton, VA",36529,Virginia
Central Islip,NY,40.7836,-73.1945,"Central Islip, NY",36519,New York
Franklin,WI,42.8854,-88.0104,"Franklin, WI",36513,Wisconsin
Upper Arlington,OH,40.0272,-83.0704,"Upper Arlington, OH",36500,Ohio
Copperas Cove,TX,31.1192,-97.914,"Copperas Cove, TX",36436,Texas
Tooele,UT,40.5393,-112.3082,"Tooele, UT",36315,Utah
Oak Creek,WI,42.8803,-87.9009,"Oak Creek, WI",36286,Wisconsin
Randallstown,MD,39.3723,-76.8024,"Randallstown, MD",36223,Maryland
Merrillville,IN,41.4728,-87.3196,"Merrillville, IN",36214,Indiana
Temple City,CA,34.1022,-118.0579,"Temple City, CA",36165,California
Carrollwood,FL,28.0577,-82.5148,"Carrollwood, FL",36148,Florida
Hilliard,OH,40.0353,-83.1578,"Hilliard, OH",36103,Ohio
Dunedin,FL,28.0329,-82.7862,"Dunedin, FL",36089,Florida
Moorpark,CA,34.2861,-118.8768,"Moorpark, CA",36073,California
Roseville,MN,45.0155,-93.1545,"Roseville, MN",36066,Minnesota
Egypt Lake-Leto,FL,28.0177,-82.5062,"Egypt Lake-Leto, FL",36000,Florida
Farmers Branch,TX,32.9272,-96.8804,"Farmers Branch, TX",35985,Texas
Marion,OH,40.5973,-83.1227,"Marion, OH",35927,Ohio
Lauderdale Lakes,FL,26.1682,-80.2017,"Lauderdale Lakes, FL",35914,Florida
Chillum,MD,38.9666,-76.9791,"Chillum, MD",35908,Maryland
Orangevale,CA,38.6881,-121.2209,"Orangevale, CA",35852,California
Sun Prairie,WI,43.1825,-89.2362,"Sun Prairie, WI",35847,Wisconsin
Cedar City,UT,37.6834,-113.0956,"Cedar City, UT",35812,Utah
La Porte,TX,29.6689,-95.0484,"La Porte, TX",35782,Texas
Commack,NY,40.8435,-73.2833,"Commack, NY",35770,New York
Norristown,PA,40.1225,-75.3398,"Norristown, PA",35712,Pennsylvania
Calumet City,IL,41.6134,-87.5505,"Calumet City, IL",35708,Illinois
South Miami Heights,FL,25.5886,-80.3862,"South Miami Heights, FL",35705,Florida
Addison,IL,41.9313,-88.0085,"Addison, IL",35685,Illinois
Inver Grove Heights,MN,44.8247,-93.0596,"Inver Grove Heights, MN",35673,Minnesota
El Mirage,AZ,33.5905,-112.3271,"El Mirage, AZ",35652,Arizona
Richmond,IN,39.8318,-84.8905,"Richmond, IN",35642,Indiana
Midvale,UT,40.6148,-111.8927,"Midvale, UT",35609,Utah
Kendall West,FL,25.7065,-80.4388,"Kendall West, FL",35606,Florida
Lima,OH,40.741,-84.112,"Lima, OH",35555,Ohio
Gahanna,OH,40.0251,-82.8637,"Gahanna, OH",35529,Ohio
Olney,MD,39.1465,-77.0715,"Olney, MD",35522,Maryland
Torrington,CT,41.8349,-73.1282,"Torrington, CT",35510,Connecticut
Kaneohe,HI,21.4062,-157.7904,"Kaneohe, HI",35493,Hawaii
North Ridgeville,OH,41.3852,-82.0195,"North Ridgeville, OH",35481,Ohio
San Juan,TX,26.1903,-98.152,"San Juan, TX",35463,Texas
Midlothian,TX,32.4669,-96.989,"Midlothian, TX",35460,Texas
Salisbury,NC,35.6658,-80.4905,"Salisbury, NC",35437,North Carolina
Socorro,TX,31.6383,-106.2601,"Socorro, TX",35429,Texas
Fuquay-Varina,NC,35.5953,-78.7778,"Fuquay-Varina, NC",35428,North Carolina
Oakville,MO,38.4479,-90.3199,"Oakville, MO",35412,Missouri
West Hollywood,CA,34.0883,-118.3719,"West Hollywood, CA",35358,California
Westmont,CA,33.9417,-118.3018,"Westmont, CA",35345,California
Fruit Cove,FL,30.0972,-81.6175,"Fruit Cove, FL",35333,Florida
Benton,AR,34.5776,-92.5713,"Benton, AR",35318,Arkansas
Brunswick,OH,41.2465,-81.8198,"Brunswick, OH",35304,Ohio
Wildwood,MO,38.58,-90.6698,"Wildwood, MO",35276,Missouri
Douglasville,GA,33.7384,-84.7054,"Douglasville, GA",35252,Georgia
Springville,UT,40.1638,-111.6205,"Springville, UT",35195,Utah
San Luis,AZ,32.4911,-114.7089,"San Luis, AZ",35189,Arizona
Watertown Town,MA,42.37,-71.1774,"Watertown Town, MA",35181,Massachusetts
Woodstock,GA,34.1026,-84.5091,"Woodstock, GA",35171,Georgia
Fair Oaks,VA,38.8653,-77.3586,"Fair Oaks, VA",35130,Virginia
Manhattan Beach,CA,33.8894,-118.3967,"Manhattan Beach, CA",35123,California
San Juan Capistrano,CA,33.5008,-117.6544,"San Juan Capistrano, CA",35099,California
Plainfield,IN,39.6954,-86.3716,"Plainfield, IN",35078,Indiana
Owings Mills,MD,39.4115,-76.7913,"Owings Mills, MD",34999,Maryland
Meridian,MS,32.3846,-88.6896,"Meridian, MS",34990,Mississippi
Cookeville,TN,36.1482,-85.5109,"Cookeville, TN",34967,Tennessee
Northbrook,IL,42.1292,-87.8352,"Northbrook, IL",34950,Illinois
Fair Lawn,NJ,40.9359,-74.1177,"Fair Lawn, NJ",34948,New Jersey
Monroe,NC,35.0063,-80.5596,"Monroe, NC",34897,North Carolina
Richmond,KY,37.7307,-84.2925,"Richmond, KY",34883,Kentucky
University City,MO,38.6657,-90.3315,"University City, MO",34850,Missouri
Parkland,FL,26.3219,-80.2533,"Parkland, FL",34832,Florida
Oswego,IL,41.6834,-88.3372,"Oswego, IL",34810,Illinois
Oildale,CA,35.4293,-119.0306,"Oildale, CA",34796,California
Graham,WA,47.0322,-122.2827,"Graham, WA",34778,Washington
Mason,OH,39.3571,-84.3023,"Mason, OH",34768,Ohio
Montgomery Village,MD,39.1788,-77.1954,"Montgomery Village, MD",34748,Maryland
Long Beach,NY,40.5887,-73.666,"Long Beach, NY",34734,New York
Hinesville,GA,31.8248,-81.6137,"Hinesville, GA",34732,Georgia
Golden Glades,FL,25.9129,-80.2013,"Golden Glades, FL",34725,Florida
Del Rio,TX,29.3708,-100.8801,"Del Rio, TX",34722,Texas
Goshen,IN,41.5743,-85.8309,"Goshen, IN",34704,Indiana
University Place,WA,47.2147,-122.5461,"University Place, WA",34696,Washington
Butte,MT,45.902,-112.6571,"Butte, MT",34638,Montana
Huntington Station,NY,40.8446,-73.405,"Huntington Station, NY",34588,New York
Pleasant Hill,CA,37.9539,-122.0759,"Pleasant Hill, CA",34504,California
Manitowoc,WI,44.0991,-87.6812,"Manitowoc, WI",34500,Wisconsin
Fairborn,OH,39.801,-84.0094,"Fairborn, OH",34494,Ohio
San Dimas,CA,34.1082,-117.809,"San Dimas, CA",34466,California
Stow,OH,41.1765,-81.4344,"Stow, OH",34459,Ohio
McMinnville,OR,45.211,-123.1918,"McMinnville, OR",34432,Oregon
College Park,MD,38.996,-76.9337,"College Park, MD",34416,Maryland
Kiryas Joel,NY,41.3411,-74.1667,"Kiryas Joel, NY",34368,New York
Lakewood Ranch,FL,27.4185,-82.3948,"Lakewood Ranch, FL",34346,Florida
Pueblo West,CO,38.3465,-104.7246,"Pueblo West, CO",34337,Colorado
Merritt Island,FL,28.3139,-80.6708,"Merritt Island, FL",34300,Florida
Lewiston,ID,46.3934,-116.9933,"Lewiston, ID",34270,Idaho
Timberwood Park,TX,29.6995,-98.4838,"Timberwood Park, TX",34253,Texas
Sahuarita,AZ,31.9323,-110.9654,"Sahuarita, AZ",34238,Arizona
Dakota Ridge,CO,39.6192,-105.1344,"Dakota Ridge, CO",34234,Colorado
Prairieville,LA,30.3151,-90.9571,"Prairieville, LA",34215,Louisiana
Redmond,OR,44.2612,-121.181,"Redmond, OR",34191,Oregon
Lufkin,TX,31.3217,-94.7277,"Lufkin, TX",34165,Texas
Pikesville,MD,39.3893,-76.702,"Pikesville, MD",34101,Maryland
Eastpointe,MI,42.4657,-82.9461,"Eastpointe, MI",34087,Michigan
Deer Park,TX,29.6898,-95.1151,"Deer Park, TX",34046,Texas
Cooper City,FL,26.0463,-80.2862,"Cooper City, FL",34046,Florida
Westlake,OH,41.4524,-81.9294,"Westlake, OH",34027,Ohio
Woodridge,IL,41.737,-88.0409,"Woodridge, IL",34027,Illinois
Spanaway,WA,47.0979,-122.4233,"Spanaway, WA",34015,Washington
Valparaiso,IN,41.4783,-87.0506,"Valparaiso, IN",33991,Indiana
American Fork,UT,40.3783,-111.7953,"American Fork, UT",33986,Utah
Windsor,CO,40.469,-104.9198,"Windsor, CO",33905,Colorado
Gadsden,AL,34.0086,-86.0157,"Gadsden, AL",33881,Alabama
Walla Walla,WA,46.0671,-118.3368,"Walla Walla, WA",33842,Washington
New City,NY,41.1542,-73.9912,"New City, NY",33837,New York
Kearney,NE,40.7011,-99.0833,"Kearney, NE",33809,Nebraska
Leawood,KS,38.9075,-94.6258,"Leawood, KS",33784,Kansas
Baldwin,NY,40.6511,-73.6075,"Baldwin, NY",33776,New York
Martinez,GA,33.5209,-82.0985,"Martinez, GA",33773,Georgia
Crown Point,IN,41.4143,-87.3457,"Crown Point, IN",33735,Indiana
Fallbrook,CA,33.3693,-117.2259,"Fallbrook, CA",33710,California
Englewood,CO,39.6468,-104.9942,"Englewood, CO",33634,Colorado
East Lake,FL,28.1206,-82.6868,"East Lake, FL",33629,Florida
Goldsboro,NC,35.3778,-77.9717,"Goldsboro, NC",33566,North Carolina
Ken Caryl,CO,39.577,-105.1144,"Ken Caryl, CO",33505,Colorado
Canton,GA,34.2467,-84.4897,"Canton, GA",33499,Georgia
West Little River,FL,25.8571,-80.2367,"West Little River, FL",33465,Florida
Alabaster,AL,33.2198,-86.8225,"Alabaster, AL",33417,Alabama
Bell,CA,33.9801,-118.1798,"Bell, CA",33377,California
Kennesaw,GA,34.026,-84.6177,"Kennesaw, GA",33360,Georgia
South Riding,VA,38.912,-77.5132,"South Riding, VA",33358,Virginia
Menlo Park,CA,37.4685,-122.1673,"Menlo Park, CA",33324,California
Buenaventura Lakes,FL,28.3349,-81.3539,"Buenaventura Lakes, FL",33284,Florida
Bethel Park,PA,40.3238,-80.0364,"Bethel Park, PA",33275,Pennsylvania
Petersburg,VA,37.2043,-77.3913,"Petersburg, VA",33261,Virginia
Cottonwood Heights,UT,40.6137,-111.8144,"Cottonwood Heights, UT",33257,Utah
Foster City,CA,37.5553,-122.2659,"Foster City, CA",33215,California
Uniondale,NY,40.7176,-73.5947,"Uniondale, NY",33192,New York
Statesboro,GA,32.4375,-81.7751,"Statesboro, GA",33185,Georgia
Gillette,WY,44.2752,-105.4982,"Gillette, WY",33158,Wyoming
Brooklyn Center,MN,45.0681,-93.3162,"Brooklyn Center, MN",33109,Minnesota
Los Gatos,CA,37.2304,-121.9562,"Los Gatos, CA",33093,California
Glendale Heights,IL,41.9196,-88.0785,"Glendale Heights, IL",33088,Illinois
Kingman,AZ,35.217,-114.0105,"Kingman, AZ",33052,Arizona
Chester,PA,39.8456,-75.3718,"Chester, PA",33048,Pennsylvania
Harker Heights,TX,31.0572,-97.6446,"Harker Heights, TX",33036,Texas
Dana Point,CA,33.4733,-117.6967,"Dana Point, CA",33025,California
Spring Valley,NY,41.1151,-74.0486,"Spring Valley, NY",32963,New York
Syracuse,UT,41.0859,-112.0698,"Syracuse, UT",32798,Utah
St. Charles,IL,41.9193,-88.3109,"St. Charles, IL",32776,Illinois
Fair Oaks,CA,38.6504,-121.2496,"Fair Oaks, CA",32754,California
Sherwood,AR,34.8507,-92.2029,"Sherwood, AR",32715,Arkansas
Kaysville,UT,41.029,-111.9456,"Kaysville, UT",32714,Utah
Des Moines,WA,47.3914,-122.3156,"Des Moines, WA",32667,Washington
Goleta,CA,34.4361,-119.8594,"Goleta, CA",32640,California
Cibolo,TX,29.5634,-98.2115,"Cibolo, TX",32640,Texas
Andover,MN,45.2571,-93.3265,"Andover, MN",32639,Minnesota
Rochester,NH,43.299,-70.9787,"Rochester, NH",32573,New Hampshire
Helena,MT,46.5965,-112.0202,"Helena, MT",32529,Montana
Elk Grove Village,IL,42.0064,-87.9921,"Elk Grove Village, IL",32498,Illinois
Spring Valley,CA,32.7317,-116.9766,"Spring Valley, CA",32496,California
Garfield,NJ,40.8791,-74.1085,"Garfield, NJ",32472,New Jersey
Ferry Pass,FL,30.5205,-87.1899,"Ferry Pass, FL",32447,Florida
Savage,MN,44.7545,-93.3632,"Savage, MN",32441,Minnesota
Beverly Hills,CA,34.0786,-118.4021,"Beverly Hills, CA",32406,California
Desert Hot Springs,CA,33.955,-116.5429,"Desert Hot Springs, CA",32386,California
Clearfield,UT,41.103,-112.0238,"Clearfield, UT",32369,Utah
Wheat Ridge,CO,39.7728,-105.1028,"Wheat Ridge, CO",32263,Colorado
North Olmsted,OH,41.4149,-81.919,"North Olmsted, OH",32244,Ohio
Massillon,OH,40.7838,-81.5254,"Massillon, OH",32179,Ohio
Weatherford,TX,32.7536,-97.7723,"Weatherford, TX",32168,Texas
Pasadena,MD,39.1552,-76.5537,"Pasadena, MD",32161,Maryland
Nacogdoches,TX,31.6134,-94.6528,"Nacogdoches, TX",32148,Texas
Juneau,AK,58.4546,-134.1739,"Juneau, AK",32108,Alaska
O'Fallon,IL,38.5974,-89.9148,"O'Fallon, IL",32104,Illinois
Pekin,IL,40.5678,-89.6251,"Pekin, IL",32075,Illinois
Florence,KY,38.9899,-84.6471,"Florence, KY",32056,Kentucky
Canyon Lake,TX,29.8761,-98.2611,"Canyon Lake, TX",32035,Texas
Rome,NY,43.226,-75.4909,"Rome, NY",32031,New York
Aiken,SC,33.5303,-81.7271,"Aiken, SC",32014,South Carolina
Marrero,LA,29.8871,-90.1126,"Marrero, LA",32003,Louisiana
Pullman,WA,46.7336,-117.168,"Pullman, WA",31972,Washington
Franklin Square,NY,40.7002,-73.6775,"Franklin Square, NY",31969,New York
Long Branch,NJ,40.2965,-73.9915,"Long Branch, NJ",31932,New Jersey
San Pablo,CA,37.9629,-122.3426,"San Pablo, CA",31907,California
Centereach,NY,40.8681,-73.0821,"Centereach, NY",31889,New York
Maryville,TN,35.7468,-83.9789,"Maryville, TN",31876,Tennessee
Cleburne,TX,32.3568,-97.4151,"Cleburne, TX",31849,Texas
Atwater,CA,37.3529,-120.5959,"Atwater, CA",31841,California
Carlsbad,NM,32.401,-104.2388,"Carlsbad, NM",31755,New Mexico
Duluth,GA,34.0053,-84.1492,"Duluth, GA",31742,Georgia
Laramie,WY,41.3099,-105.6085,"Laramie, WY",31735,Wyoming
Bangor,ME,44.8323,-68.7906,"Bangor, ME",31705,Maine
Dania Beach,FL,26.0593,-80.1637,"Dania Beach, FL",31700,Florida
Garner,NC,35.6936,-78.6181,"Garner, NC",31684,North Carolina
West Bend,WI,43.4173,-88.1818,"West Bend, WI",31682,Wisconsin
Naugatuck,CT,41.489,-73.0518,"Naugatuck, CT",31653,Connecticut
Mundelein,IL,42.2693,-88.0102,"Mundelein, IL",31583,Illinois
Holladay,UT,40.66,-111.8226,"Holladay, UT",31563,Utah
Lawndale,CA,33.8884,-118.3531,"Lawndale, CA",31553,California
Lake Magdalene,FL,28.0875,-82.4791,"Lake Magdalene, FL",31546,Florida
Oak Ridge,TN,35.9639,-84.2938,"Oak Ridge, TN",31535,Tennessee
Milford Mill,MD,39.3444,-76.7668,"Milford Mill, MD",31513,Maryland
Prosper,TX,33.2394,-96.8087,"Prosper, TX",31507,Texas
Oceanside,NY,40.6328,-73.6364,"Oceanside, NY",31488,New York
Cornelius,NC,35.4724,-80.8813,"Cornelius, NC",31396,North Carolina
Shawnee,OK,35.3531,-96.9647,"Shawnee, OK",31391,Oklahoma
New Bern,NC,35.0955,-77.0723,"New Bern, NC",31373,North Carolina
Opelika,AL,32.6612,-85.3769,"Opelika, AL",31361,Alabama
Ithaca,NY,42.4442,-76.5032,"Ithaca, NY",31359,New York
Nicholasville,KY,37.8906,-84.5668,"Nicholasville, KY",31352,Kentucky
Redan,GA,33.7394,-84.1644,"Redan, GA",31326,Georgia
Bel Air North,MD,39.5543,-76.3732,"Bel Air North, MD",31308,Maryland
Port Chester,NY,41.0051,-73.668,"Port Chester, NY",31288,New York
La Verne,CA,34.1207,-117.7703,"La Verne, CA",31239,California
LaGrange,GA,33.0274,-85.0384,"LaGrange, GA",31173,Georgia
Laguna Hills,CA,33.5918,-117.6991,"Laguna Hills, CA",31170,California
Middle River,MD,39.3436,-76.4253,"Middle River, MD",31155,Maryland
Orcutt,CA,34.8691,-120.4222,"Orcutt, CA",31137,California
Los Altos,CA,37.3684,-122.0965,"Los Altos, CA",31133,California
West Falls Church,VA,38.8648,-77.1878,"West Falls Church, VA",31121,Virginia
North Royalton,OH,41.3138,-81.745,"North Royalton, OH",31120,Ohio
Sterling,VA,39.0052,-77.405,"Sterling, VA",31058,Virginia
Hopkinsville,KY,36.8381,-87.4775,"Hopkinsville, KY",31042,Kentucky
Springfield,VA,38.781,-77.1839,"Springfield, VA",31022,Virginia
Alamogordo,NM,32.8837,-105.9625,"Alamogordo, NM",30996,New Mexico
Burlingame,CA,37.5859,-122.3667,"Burlingame, CA",30995,California
Bethany,OR,45.5614,-122.837,"Bethany, OR",30983,Oregon
Lakeside,FL,30.1356,-81.7674,"Lakeside, FL",30973,Florida
Ballwin,MO,38.595,-90.55,"Ballwin, MO",30948,Missouri
SeaTac,WA,47.4444,-122.2986,"SeaTac, WA",30927,Washington
West Odessa,TX,31.8389,-102.5003,"West Odessa, TX",30904,Texas
North Chicago,IL,42.3172,-87.8595,"North Chicago, IL",30890,Illinois
Westfield,NJ,40.6516,-74.3432,"Westfield, NJ",30839,New Jersey
Zionsville,IN,39.9897,-86.3182,"Zionsville, IN",30832,Indiana
Santa Paula,CA,34.3545,-119.0656,"Santa Paula, CA",30788,California
Southlake,TX,32.9545,-97.1503,"Southlake, TX",30779,Texas
Saratoga,CA,37.2684,-122.0263,"Saratoga, CA",30771,California
Northport,AL,33.2586,-87.5993,"Northport, AL",30714,Alabama
Newark,DE,39.6776,-75.7576,"Newark, DE",30655,Delaware
Niles,IL,42.0278,-87.8099,"Niles, IL",30637,Illinois
Eagle,ID,43.7223,-116.3866,"Eagle, ID",30635,Idaho
Gurnee,IL,42.3708,-87.9392,"Gurnee, IL",30629,Illinois
Miami Lakes,FL,25.9125,-80.3214,"Miami Lakes, FL",30621,Florida
Bay Shore,NY,40.7288,-73.2495,"Bay Shore, NY",30553,New York
Parkville,MD,39.3832,-76.5519,"Parkville, MD",30520,Maryland
San Carlos,CA,37.4982,-122.2677,"San Carlos, CA",30490,California
North Tonawanda,NY,43.0457,-78.8659,"North Tonawanda, NY",30479,New York
Lawrenceville,GA,33.9523,-83.9932,"Lawrenceville, GA",30465,Georgia
Princeton,NJ,40.3562,-74.6693,"Princeton, NJ",30450,New Jersey
New Smyrna Beach,FL,29.0249,-80.9652,"New Smyrna Beach, FL",30449,Florida
Erie,CO,40.0404,-105.0399,"Erie, CO",30447,Colorado
Austintown,OH,41.0932,-80.7405,"Austintown, OH",30397,Ohio
Sanford,NC,35.4875,-79.177,"Sanford, NC",30373,North Carolina
Eldersburg,MD,39.4041,-76.9528,"Eldersburg, MD",30357,Maryland
Seguin,TX,29.5891,-97.9676,"Seguin, TX",30318,Texas
Liberty,MO,39.2394,-94.4191,"Liberty, MO",30299,Missouri
Bella Vista,AR,36.4667,-94.2707,"Bella Vista, AR",30297,Arkansas
Drexel Heights,AZ,32.1453,-111.048,"Drexel Heights, AZ",30254,Arizona
Highland Park,IL,42.1823,-87.8104,"Highland Park, IL",30209,Illinois
Middletown,NY,41.4459,-74.4236,"Middletown, NY",30169,New York
Bowling Green,OH,41.3776,-83.6495,"Bowling Green, OH",30157,Ohio
Granger,IN,41.7374,-86.1348,"Granger, IN",30019,Indiana
Monterey,CA,36.5919,-121.8808,"Monterey, CA",30007,California
Winter Park,FL,28.5989,-81.3442,"Winter Park, FL",29985,Florida
East Niles,CA,35.3683,-118.9225,"East Niles, CA",29981,California
Chamblee,GA,33.8842,-84.3007,"Chamblee, GA",29980,Georgia
Vero Beach South,FL,27.6132,-80.4163,"Vero Beach South, FL",29965,Florida
Southgate,MI,42.2047,-83.2057,"Southgate, MI",29948,Michigan
Banning,CA,33.946,-116.8992,"Banning, CA",29929,California
Galesburg,IL,40.9506,-90.3763,"Galesburg, IL",29923,Illinois
Algonquin,IL,42.1629,-88.3159,"Algonquin, IL",29888,Illinois
Gloucester,MA,42.626,-70.6897,"Gloucester, MA",29830,Massachusetts
Fitchburg,WI,42.9859,-89.4255,"Fitchburg, WI",29826,Wisconsin
Fleming Island,FL,30.0988,-81.7124,"Fleming Island, FL",29810,Florida
Raytown,MO,38.9944,-94.4641,"Raytown, MO",29772,Missouri
San Lorenzo,CA,37.6733,-122.1332,"San Lorenzo, CA",29759,California
Atascadero,CA,35.4827,-120.6858,"Atascadero, CA",29758,California
Morrisville,NC,35.8368,-78.8348,"Morrisville, NC",29756,North Carolina
Fridley,MN,45.0841,-93.2595,"Fridley, MN",29731,Minnesota
Summerlin South,NV,36.1242,-115.3324,"Summerlin South, NV",29724,Nevada
Paragould,AR,36.0555,-90.5149,"Paragould, AR",29690,Arkansas
Hazleton,PA,40.9505,-75.9725,"Hazleton, PA",29671,Pennsylvania
Rahway,NJ,40.6077,-74.2807,"Rahway, NJ",29664,New Jersey
Lathrop,CA,37.809,-121.3131,"Lathrop, CA",29633,California
Matthews,NC,35.1195,-80.7101,"Matthews, NC",29613,North Carolina
Laurel,MD,39.0949,-76.8622,"Laurel, MD",29581,Maryland
Schererville,IN,41.4861,-87.4442,"Schererville, IN",29573,Indiana
Hobart,IN,41.514,-87.2729,"Hobart, IN",29573,Indiana
Burton,MI,42.9974,-83.6175,"Burton, MI",29568,Michigan
Eastern Goleta Valley,CA,34.4448,-119.7879,"Eastern Goleta Valley, CA",29563,California
East Palo Alto,CA,37.4671,-122.1352,"East Palo Alto, CA",29520,California
Central,LA,30.5593,-91.0369,"Central, LA",29518,Louisiana
Hutto,TX,30.5396,-97.544,"Hutto, TX",29498,Texas
Fountain,CO,38.6886,-104.6829,"Fountain, CO",29498,Colorado
Garfield Heights,OH,41.4199,-81.6038,"Garfield Heights, OH",29497,Ohio
Oak Park,MI,42.4649,-83.1824,"Oak Park, MI",29495,Michigan
Greenville,MS,33.385,-91.0514,"Greenville, MS",29495,Mississippi
Melrose,MA,42.4556,-71.059,"Melrose, MA",29477,Massachusetts
Texarkana,AR,33.436,-93.9959,"Texarkana, AR",29404,Arkansas
Golden Gate,FL,26.1844,-81.7031,"Golden Gate, FL",29400,Florida
Brownsburg,IN,39.8337,-86.383,"Brownsburg, IN",29379,Indiana
Bluffton,SC,32.2135,-80.9316,"Bluffton, SC",29375,South Carolina
Crofton,MD,39.0144,-76.68,"Crofton, MD",29358,Maryland
Carney,MD,39.405,-76.5235,"Carney, MD",29352,Maryland
Suisun City,CA,38.2473,-122.0091,"Suisun City, CA",29350,California
Anderson,SC,34.5211,-82.6478,"Anderson, SC",29345,South Carolina
Jacksonville,AR,34.8807,-92.1304,"Jacksonville, AR",29332,Arkansas
Kirkwood,MO,38.5788,-90.4203,"Kirkwood, MO",29309,Missouri
Sun City Center,FL,27.715,-82.3569,"Sun City Center, FL",29290,Florida
Magna,UT,40.7634,-112.1599,"Magna, UT",29275,Utah
Oakleaf Plantation,FL,30.1689,-81.8337,"Oakleaf Plantation, FL",29265,Florida
Perry Hall,MD,39.4068,-76.478,"Perry Hall, MD",29255,Maryland
East Lake-Orient Park,FL,27.997,-82.3653,"East Lake-Orient Park, FL",29243,Florida
Drexel Hill,PA,39.9495,-75.3038,"Drexel Hill, PA",29231,Pennsylvania
Orchards,WA,45.689,-122.5306,"Orchards, WA",29214,Washington
Washington,UT,37.1303,-113.4878,"Washington, UT",29161,Utah
Shaker Heights,OH,41.4744,-81.5496,"Shaker Heights, OH",29157,Ohio
McDonough,GA,33.4397,-84.1505,"McDonough, GA",29134,Georgia
Burbank,IL,41.7444,-87.7686,"Burbank, IL",29122,Illinois
Englewood,NJ,40.8917,-73.9736,"Englewood, NJ",29109,New Jersey
Danville,IL,40.1426,-87.6111,"Danville, IL",29100,Illinois
Casselberry,FL,28.6624,-81.3217,"Casselberry, FL",29092,Florida
Mehlville,MO,38.5018,-90.3149,"Mehlville, MO",29089,Missouri
Lake in the Hills,IL,42.1913,-88.3477,"Lake in the Hills, IL",28958,Illinois
Laplace,LA,30.0731,-90.4758,"Laplace, LA",28956,Louisiana
Russellville,AR,35.2762,-93.1383,"Russellville, AR",28946,Arkansas
Greenville,TX,33.1116,-96.1099,"Greenville, TX",28923,Texas
Haines City,FL,28.1102,-81.6157,"Haines City, FL",28922,Florida
Easton,PA,40.6858,-75.2209,"Easton, PA",28883,Pennsylvania
Ruskin,FL,27.7065,-82.4209,"Ruskin, FL",28878,Florida
Stockbridge,GA,33.5254,-84.2295,"Stockbridge, GA",28858,Georgia
Jeffersontown,KY,38.2049,-85.5701,"Jeffersontown, KY",28796,Kentucky
Bixby,OK,35.9454,-95.8776,"Bixby, OK",28731,Oklahoma
Independence,KY,38.951,-84.5492,"Independence, KY",28722,Kentucky
Harrison,NY,41.0236,-73.7193,"Harrison, NY",28721,New York
Lansing,IL,41.5648,-87.5462,"Lansing, IL",28713,Illinois
Jamestown,NY,42.0976,-79.2367,"Jamestown, NY",28679,New York
Statesville,NC,35.7842,-80.8713,"Statesville, NC",28576,North Carolina
Madison Heights,MI,42.5073,-83.1034,"Madison Heights, MI",28521,Michigan
Monroeville,PA,40.4262,-79.7605,"Monroeville, PA",28517,Pennsylvania
Enterprise,AL,31.3275,-85.8463,"Enterprise, AL",28513,Alabama
Frankfort,KY,38.1924,-84.8643,"Frankfort, KY",28460,Kentucky
South Laurel,MD,39.0603,-76.8456,"South Laurel, MD",28427,Maryland
Forest Hills,MI,42.9577,-85.4895,"Forest Hills, MI",28425,Michigan
Short Pump,VA,37.6549,-77.6201,"Short Pump, VA",28400,Virginia
Allen Park,MI,42.2595,-83.2107,"Allen Park, MI",28395,Michigan
Aberdeen,SD,45.4649,-98.4686,"Aberdeen, SD",28388,South Dakota
New Iberia,LA,30.0049,-91.8202,"New Iberia, LA",28363,Louisiana
Clarksburg,MD,39.2246,-77.2659,"Clarksburg, MD",28337,Maryland
Glen Ellyn,IL,41.8666,-88.0629,"Glen Ellyn, IL",28304,Illinois
Monsey,NY,41.1181,-74.0682,"Monsey, NY",28287,New York
